{
  "03N": {
    "iata": "UTK",
    "name": "Utirik Airport",
    "city": "Utirik Island",
    "country": "Marshall Islands",
    "latitude": 11.222,
    "longitude": 169.852005,
    "altitude": 4,
    "utcOffset": 12,
    "dst": "U"
  },
  "07FA": {
    "iata": "OCA",
    "name": "Ocean Reef Club Airport",
    "city": "Ocean Reef Club Airport",
    "country": "United States",
    "latitude": 25.3253994,
    "longitude": -80.27480316,
    "altitude": 8,
    "utcOffset": -5,
    "dst": "A"
  },
  "07MT": {
    "iata": "",
    "name": "Glasgow Industrial Airport",
    "city": "Glasgow",
    "country": "United States",
    "latitude": 48.42110062,
    "longitude": -106.5279999,
    "altitude": 2762,
    "utcOffset": -7,
    "dst": "A"
  },
  "0WI8": {
    "iata": "",
    "name": "Oconomowoc Airport",
    "city": "Oconomowoc",
    "country": "United States",
    "latitude": 43.13890076,
    "longitude": -88.47229767,
    "altitude": 885,
    "utcOffset": -6,
    "dst": "A"
  },
  "18AZ": {
    "iata": "",
    "name": "Sky Ranch At Carefree Airport",
    "city": "Carefree",
    "country": "United States",
    "latitude": 33.81809998,
    "longitude": -111.8980026,
    "altitude": 2568,
    "utcOffset": -7,
    "dst": "N"
  },
  "1AZ0": {
    "iata": "",
    "name": "Mobile Airport",
    "city": "Mobile",
    "country": "United States",
    "latitude": 33.11190033,
    "longitude": -112.2689972,
    "altitude": 1261,
    "utcOffset": -7,
    "dst": "U"
  },
  "20GA": {
    "iata": "",
    "name": "Earl L. Small Jr. Field/Stockmar Airport",
    "city": "Villa Rica",
    "country": "United States",
    "latitude": 33.75650024,
    "longitude": -84.88469696,
    "altitude": 1110,
    "utcOffset": -5,
    "dst": "A"
  },
  "24SC": {
    "iata": "",
    "name": "The Farm Airport",
    "city": "Summit",
    "country": "United States",
    "latitude": 33.93579865,
    "longitude": -81.42970276,
    "altitude": 580,
    "utcOffset": -4,
    "dst": "A"
  },
  "2XS8": {
    "iata": "",
    "name": "Benson Airstrip",
    "city": "Uvalde",
    "country": "United States",
    "latitude": 29.22940063,
    "longitude": -99.82389832,
    "altitude": 929,
    "utcOffset": -6,
    "dst": "A"
  },
  "5A8": {
    "iata": "WKK",
    "name": "Aleknagik / New Airport",
    "city": "Aleknagik",
    "country": "United States",
    "latitude": 59.2826004,
    "longitude": -158.6179962,
    "altitude": 66,
    "utcOffset": -9,
    "dst": "A"
  },
  "66CA": {
    "iata": "",
    "name": "Rancho San Simeon Airport",
    "city": "Cambria",
    "country": "United States",
    "latitude": 35.60770035,
    "longitude": -121.1100006,
    "altitude": 320,
    "utcOffset": -8,
    "dst": "A"
  },
  "7FA1": {
    "iata": "",
    "name": "Sugar Loaf Shores Airport",
    "city": "Key West",
    "country": "United States",
    "latitude": 24.6487999,
    "longitude": -81.57980347,
    "altitude": 4,
    "utcOffset": -5,
    "dst": "A"
  },
  "7FL4": {
    "iata": "",
    "name": "Haller Airpark",
    "city": "Green Cove Springs",
    "country": "United States",
    "latitude": 29.904057,
    "longitude": -81.68515,
    "altitude": 75,
    "utcOffset": -5,
    "dst": "A"
  },
  "AGAF": {
    "iata": "AFT",
    "name": "Afutara Aerodrome",
    "city": "Afutara",
    "country": "Solomon Islands",
    "latitude": -9.191388889,
    "longitude": 160.9486111,
    "altitude": 23,
    "utcOffset": 11,
    "dst": "U"
  },
  "AGAR": {
    "iata": "RNA",
    "name": "Ulawa Airport",
    "city": "Ulawa",
    "country": "Solomon Islands",
    "latitude": -9.860543583,
    "longitude": 161.9795465,
    "altitude": 40,
    "utcOffset": 11,
    "dst": "U"
  },
  "AGAT": {
    "iata": "ATD",
    "name": "Uru Harbour Airport",
    "city": "Atoifi",
    "country": "Solomon Islands",
    "latitude": -8.87333,
    "longitude": 161.011002,
    "altitude": 0,
    "utcOffset": 11,
    "dst": "U"
  },
  "AGGA": {
    "iata": "AKS",
    "name": "Auki Airport",
    "city": "Auki",
    "country": "Solomon Islands",
    "latitude": -8.702569962,
    "longitude": 160.6820068,
    "altitude": 5,
    "utcOffset": 11,
    "dst": "U"
  },
  "AGGC": {
    "iata": "CHY",
    "name": "Choiseul Bay Airport",
    "city": "Choiseul Bay",
    "country": "Solomon Islands",
    "latitude": -6.711944,
    "longitude": 156.396111,
    "altitude": 0,
    "utcOffset": 11,
    "dst": "U"
  },
  "AGGE": {
    "iata": "BAS",
    "name": "Ballalae Airport",
    "city": "Ballalae",
    "country": "Solomon Islands",
    "latitude": -6.990745,
    "longitude": 155.886656,
    "altitude": 5,
    "utcOffset": 11,
    "dst": "U"
  },
  "AGGF": {
    "iata": "FRE",
    "name": "Fera/Maringe Airport",
    "city": "Fera Island",
    "country": "Solomon Islands",
    "latitude": -8.1075,
    "longitude": 159.576996,
    "altitude": 0,
    "utcOffset": 11,
    "dst": "U"
  },
  "AGGH": {
    "iata": "HIR",
    "name": "Honiara International Airport",
    "city": "Honiara",
    "country": "Solomon Islands",
    "latitude": -9.42800045,
    "longitude": 160.0549927,
    "altitude": 28,
    "utcOffset": 11,
    "dst": "U"
  },
  "AGGI": {
    "iata": "MBU",
    "name": "Babanakira Airport",
    "city": "Mbambanakira",
    "country": "Solomon Islands",
    "latitude": -9.74750042,
    "longitude": 159.8390045,
    "altitude": 0,
    "utcOffset": 11,
    "dst": "U"
  },
  "AGGK": {
    "iata": "IRA",
    "name": "Ngorangora Airport",
    "city": "Kirakira",
    "country": "Solomon Islands",
    "latitude": -10.44970036,
    "longitude": 161.897995,
    "altitude": 54,
    "utcOffset": 11,
    "dst": "U"
  },
  "AGGL": {
    "iata": "SCZ",
    "name": "Santa Cruz/Graciosa Bay/Luova Airport",
    "city": "Santa Cruz/Graciosa Bay/Luova",
    "country": "Solomon Islands",
    "latitude": -10.72029972,
    "longitude": 165.7949982,
    "altitude": 18,
    "utcOffset": 11,
    "dst": "U"
  },
  "AGGM": {
    "iata": "MUA",
    "name": "Munda Airport",
    "city": "Munda",
    "country": "Solomon Islands",
    "latitude": -8.327969551,
    "longitude": 157.2630005,
    "altitude": 10,
    "utcOffset": 11,
    "dst": "U"
  },
  "AGGN": {
    "iata": "GZO",
    "name": "Nusatupe Airport",
    "city": "Gizo",
    "country": "Solomon Islands",
    "latitude": -8.097780228,
    "longitude": 156.8639984,
    "altitude": 13,
    "utcOffset": 11,
    "dst": "U"
  },
  "AGGO": {
    "iata": "MNY",
    "name": "Mono Airport",
    "city": "Stirling Island",
    "country": "Solomon Islands",
    "latitude": -7.416940212,
    "longitude": 155.5650024,
    "altitude": 0,
    "utcOffset": 11,
    "dst": "U"
  },
  "AGGR": {
    "iata": "RNL",
    "name": "Rennell/Tingoa Airport",
    "city": "Rennell Island",
    "country": "Solomon Islands",
    "latitude": -11.53390026,
    "longitude": 160.0630035,
    "altitude": 0,
    "utcOffset": 11,
    "dst": "U"
  },
  "AGGS": {
    "iata": "EGM",
    "name": "Sege Airport",
    "city": "Sege",
    "country": "Solomon Islands",
    "latitude": -8.578889847,
    "longitude": 157.8760071,
    "altitude": 0,
    "utcOffset": 11,
    "dst": "U"
  },
  "AGGT": {
    "iata": "NNB",
    "name": "Santa Ana Airport",
    "city": "Santa Ana",
    "country": "Solomon Islands",
    "latitude": -10.847994,
    "longitude": 162.454108,
    "altitude": 3,
    "utcOffset": 11,
    "dst": "U"
  },
  "AGGU": {
    "iata": "RUS",
    "name": "Marau Airport",
    "city": "Marau",
    "country": "Solomon Islands",
    "latitude": -9.86166954,
    "longitude": 160.8249969,
    "altitude": 0,
    "utcOffset": 11,
    "dst": "U"
  },
  "AGGV": {
    "iata": "VAO",
    "name": "Suavanao Airport",
    "city": "Suavanao",
    "country": "Solomon Islands",
    "latitude": -7.585559845,
    "longitude": 158.7310028,
    "altitude": 0,
    "utcOffset": 11,
    "dst": "U"
  },
  "AGGY": {
    "iata": "XYA",
    "name": "Yandina Airport",
    "city": "Yandina",
    "country": "Solomon Islands",
    "latitude": -9.092816,
    "longitude": 159.21841,
    "altitude": 60,
    "utcOffset": 11,
    "dst": "U"
  },
  "AGKG": {
    "iata": "KGE",
    "name": "Kaghau Airport",
    "city": "Kagau Island",
    "country": "Solomon Islands",
    "latitude": -7.3305,
    "longitude": 157.585,
    "altitude": 30,
    "utcOffset": 11,
    "dst": "U"
  },
  "AGRC": {
    "iata": "RIN",
    "name": "Ringi Cove Airport",
    "city": "Ringi Cove",
    "country": "Solomon Islands",
    "latitude": -8.126390457,
    "longitude": 157.1430054,
    "altitude": 0,
    "utcOffset": 11,
    "dst": "U"
  },
  "AGRM": {
    "iata": "RBV",
    "name": "Ramata Airport",
    "city": "Ramata",
    "country": "Solomon Islands",
    "latitude": -8.168060303,
    "longitude": 157.6430054,
    "altitude": 0,
    "utcOffset": 11,
    "dst": "U"
  },
  "AK59": {
    "iata": "",
    "name": "King Ranch Airport",
    "city": "Sutton",
    "country": "United States",
    "latitude": 61.79560089,
    "longitude": -148.3549957,
    "altitude": 1350,
    "utcOffset": -8,
    "dst": "A"
  },
  "ANYN": {
    "iata": "INU",
    "name": "Nauru International Airport",
    "city": "Nauru",
    "country": "Nauru",
    "latitude": -0.547458,
    "longitude": 166.919006,
    "altitude": 22,
    "utcOffset": 12,
    "dst": "U"
  },
  "AYBK": {
    "iata": "BUA",
    "name": "Buka Airport",
    "city": "Buka Island",
    "country": "Papua New Guinea",
    "latitude": -5.422319889,
    "longitude": 154.6730042,
    "altitude": 11,
    "utcOffset": 10,
    "dst": "U"
  },
  "AYCH": {
    "iata": "CMU",
    "name": "Chimbu Airport",
    "city": "Kundiawa",
    "country": "Papua New Guinea",
    "latitude": -6.024290085,
    "longitude": 144.970993,
    "altitude": 4974,
    "utcOffset": 10,
    "dst": "U"
  },
  "AYDU": {
    "iata": "DAU",
    "name": "Daru Airport",
    "city": "Daru",
    "country": "Papua New Guinea",
    "latitude": -9.086759567,
    "longitude": 143.2079926,
    "altitude": 20,
    "utcOffset": 10,
    "dst": "U"
  },
  "AYGA": {
    "iata": "GKA",
    "name": "Goroka Airport",
    "city": "Goroka",
    "country": "Papua New Guinea",
    "latitude": -6.081689835,
    "longitude": 145.3919983,
    "altitude": 5282,
    "utcOffset": 10,
    "dst": "U"
  },
  "AYGN": {
    "iata": "GUR",
    "name": "Gurney Airport",
    "city": "Gurney",
    "country": "Papua New Guinea",
    "latitude": -10.3114996,
    "longitude": 150.3339996,
    "altitude": 88,
    "utcOffset": 10,
    "dst": "U"
  },
  "AYGR": {
    "iata": "PNP",
    "name": "Girua Airport",
    "city": "Girua",
    "country": "Papua New Guinea",
    "latitude": -8.80453968,
    "longitude": 148.3090057,
    "altitude": 311,
    "utcOffset": 10,
    "dst": "U"
  },
  "AYHK": {
    "iata": "HKN",
    "name": "Kimbe Airport",
    "city": "Hoskins",
    "country": "Papua New Guinea",
    "latitude": -5.462170124,
    "longitude": 150.4049988,
    "altitude": 66,
    "utcOffset": 10,
    "dst": "U"
  },
  "AYKI": {
    "iata": "UNG",
    "name": "Kiunga Airport",
    "city": "Kiunga",
    "country": "Papua New Guinea",
    "latitude": -6.125710011,
    "longitude": 141.2819977,
    "altitude": 88,
    "utcOffset": 10,
    "dst": "U"
  },
  "AYKK": {
    "iata": "KRI",
    "name": "Kikori Airport",
    "city": "Kikori",
    "country": "Papua New Guinea",
    "latitude": -7.424379826,
    "longitude": 144.2500763,
    "altitude": 50,
    "utcOffset": 10,
    "dst": "U"
  },
  "AYKM": {
    "iata": "KMA",
    "name": "Kerema Airport",
    "city": "Kerema",
    "country": "Papua New Guinea",
    "latitude": -7.963610172,
    "longitude": 145.7709961,
    "altitude": 10,
    "utcOffset": 10,
    "dst": "U"
  },
  "AYKT": {
    "iata": "KIE",
    "name": "Kieta Airport",
    "city": "Kieta",
    "country": "Papua New Guinea",
    "latitude": -6.305416667,
    "longitude": 155.7281389,
    "altitude": 20,
    "utcOffset": 10,
    "dst": "U"
  },
  "AYKV": {
    "iata": "KVG",
    "name": "Kavieng Airport",
    "city": "Kavieng",
    "country": "Papua New Guinea",
    "latitude": -2.579400063,
    "longitude": 150.8079987,
    "altitude": 7,
    "utcOffset": 10,
    "dst": "U"
  },
  "AYMD": {
    "iata": "MAG",
    "name": "Madang Airport",
    "city": "Madang",
    "country": "Papua New Guinea",
    "latitude": -5.207079887,
    "longitude": 145.7890015,
    "altitude": 20,
    "utcOffset": 10,
    "dst": "U"
  },
  "AYMH": {
    "iata": "HGU",
    "name": "Mount Hagen Kagamuga Airport",
    "city": "Mount Hagen",
    "country": "Papua New Guinea",
    "latitude": -5.826789856,
    "longitude": 144.2960052,
    "altitude": 5388,
    "utcOffset": 10,
    "dst": "U"
  },
  "AYMN": {
    "iata": "MDU",
    "name": "Mendi Airport",
    "city": "Mendi",
    "country": "Papua New Guinea",
    "latitude": -6.14774,
    "longitude": 143.656998,
    "altitude": 5680,
    "utcOffset": 10,
    "dst": "U"
  },
  "AYMO": {
    "iata": "MAS",
    "name": "Momote Airport",
    "city": "Momote",
    "country": "Papua New Guinea",
    "latitude": -2.06189,
    "longitude": 147.423996,
    "altitude": 12,
    "utcOffset": 10,
    "dst": "U"
  },
  "AYMR": {
    "iata": "MXH",
    "name": "Moro Airport",
    "city": "Moro",
    "country": "Papua New Guinea",
    "latitude": -6.363329887,
    "longitude": 143.2380066,
    "altitude": 2740,
    "utcOffset": 10,
    "dst": "U"
  },
  "AYMS": {
    "iata": "MIS",
    "name": "Misima Island Airport",
    "city": "Misima Island",
    "country": "Papua New Guinea",
    "latitude": -10.6892004,
    "longitude": 152.8379974,
    "altitude": 26,
    "utcOffset": 10,
    "dst": "U"
  },
  "AYNZ": {
    "iata": "LAE",
    "name": "Nadzab Airport",
    "city": "Nadzab",
    "country": "Papua New Guinea",
    "latitude": -6.569803,
    "longitude": 146.725977,
    "altitude": 239,
    "utcOffset": 10,
    "dst": "U"
  },
  "AYPY": {
    "iata": "POM",
    "name": "Port Moresby Jacksons International Airport",
    "city": "Port Moresby",
    "country": "Papua New Guinea",
    "latitude": -9.443380356,
    "longitude": 147.2200012,
    "altitude": 146,
    "utcOffset": 10,
    "dst": "U"
  },
  "AYTA": {
    "iata": "TIZ",
    "name": "Tari Airport",
    "city": "Tari",
    "country": "Papua New Guinea",
    "latitude": -5.84499979,
    "longitude": 142.947998,
    "altitude": 5500,
    "utcOffset": 10,
    "dst": "U"
  },
  "AYTB": {
    "iata": "TBG",
    "name": "Tabubil Airport",
    "city": "Tabubil",
    "country": "Papua New Guinea",
    "latitude": -5.278610229,
    "longitude": 141.2259979,
    "altitude": 1570,
    "utcOffset": 10,
    "dst": "U"
  },
  "AYTK": {
    "iata": "RAB",
    "name": "Tokua Airport",
    "city": "Tokua",
    "country": "Papua New Guinea",
    "latitude": -4.340459824,
    "longitude": 152.3800049,
    "altitude": 32,
    "utcOffset": 10,
    "dst": "U"
  },
  "AYVN": {
    "iata": "VAI",
    "name": "Vanimo Airport",
    "city": "Vanimo",
    "country": "Papua New Guinea",
    "latitude": -2.6926,
    "longitude": 141.3028,
    "altitude": 10,
    "utcOffset": 10,
    "dst": "U"
  },
  "AYWD": {
    "iata": "WBM",
    "name": "Wapenamanda Airport",
    "city": "Wapenamanda",
    "country": "Papua New Guinea",
    "latitude": -5.643300056,
    "longitude": 143.8950043,
    "altitude": 5889,
    "utcOffset": 10,
    "dst": "U"
  },
  "AYWK": {
    "iata": "WWK",
    "name": "Wewak International Airport",
    "city": "Wewak",
    "country": "Papua New Guinea",
    "latitude": -3.583830118,
    "longitude": 143.6690063,
    "altitude": 19,
    "utcOffset": 10,
    "dst": "U"
  },
  "BGAA": {
    "iata": "JEG",
    "name": "Aasiaat Airport",
    "city": "Aasiaat",
    "country": "Greenland",
    "latitude": 68.72180176,
    "longitude": -52.78469849,
    "altitude": 74,
    "utcOffset": -3,
    "dst": "E"
  },
  "BGAM": {
    "iata": "AGM",
    "name": "Tasiilaq Heliport",
    "city": "Angmagssalik",
    "country": "Greenland",
    "latitude": 65.61229608,
    "longitude": -37.61833549,
    "altitude": 24,
    "utcOffset": -3,
    "dst": "U"
  },
  "BGAP": {
    "iata": "LLU",
    "name": "Alluitsup Paa Heliport",
    "city": "Alluitsup Paa",
    "country": "Greenland",
    "latitude": 60.46445,
    "longitude": -45.56917,
    "altitude": 54,
    "utcOffset": -3,
    "dst": "E"
  },
  "BGBW": {
    "iata": "UAK",
    "name": "Narsarsuaq Airport",
    "city": "Narssarssuaq",
    "country": "Greenland",
    "latitude": 61.16049957,
    "longitude": -45.42599869,
    "altitude": 112,
    "utcOffset": -3,
    "dst": "E"
  },
  "BGCH": {
    "iata": "JCH",
    "name": "Qasigiannguit Heliport",
    "city": "Qasigiannguit",
    "country": "Greenland",
    "latitude": 68.82281555,
    "longitude": -51.17344737,
    "altitude": 70,
    "utcOffset": -3,
    "dst": "E"
  },
  "BGCO": {
    "iata": "CNP",
    "name": "Neerlerit Inaat Airport",
    "city": "Neerlerit Inaat",
    "country": "Greenland",
    "latitude": 70.74310303,
    "longitude": -22.65049934,
    "altitude": 45,
    "utcOffset": -1,
    "dst": "E"
  },
  "BGFH": {
    "iata": "JFR",
    "name": "Paamiut Heliport",
    "city": "Paamiut",
    "country": "Greenland",
    "latitude": 61.99219894,
    "longitude": -49.66249847,
    "altitude": 63,
    "utcOffset": -3,
    "dst": "E"
  },
  "BGGH": {
    "iata": "GOH",
    "name": "Godthaab / Nuuk Airport",
    "city": "Godthaab",
    "country": "Greenland",
    "latitude": 64.19090271,
    "longitude": -51.67810059,
    "altitude": 283,
    "utcOffset": -3,
    "dst": "E"
  },
  "BGGN": {
    "iata": "JGO",
    "name": "Qeqertarsuaq Heliport",
    "city": "Qeqertarsuaq Airport",
    "country": "Greenland",
    "latitude": 69.25118199,
    "longitude": -53.51487637,
    "altitude": 9,
    "utcOffset": -3,
    "dst": "E"
  },
  "BGJH": {
    "iata": "JJU",
    "name": "Qaqortoq Heliport",
    "city": "Qaqortoq",
    "country": "Greenland",
    "latitude": 60.71568416,
    "longitude": -46.02991864,
    "altitude": 53,
    "utcOffset": -3,
    "dst": "E"
  },
  "BGJN": {
    "iata": "JAV",
    "name": "Ilulissat Airport",
    "city": "Ilulissat",
    "country": "Greenland",
    "latitude": 69.24320221,
    "longitude": -51.05709839,
    "altitude": 95,
    "utcOffset": -3,
    "dst": "E"
  },
  "BGMQ": {
    "iata": "JSU",
    "name": "Maniitsoq Airport",
    "city": "Maniitsoq",
    "country": "Greenland",
    "latitude": 65.41249847,
    "longitude": -52.93939972,
    "altitude": 91,
    "utcOffset": -3,
    "dst": "E"
  },
  "BGNN": {
    "iata": "JNN",
    "name": "Nanortalik Heliport",
    "city": "Nanortalik",
    "country": "Greenland",
    "latitude": 60.14188398,
    "longitude": -45.23297668,
    "altitude": 17,
    "utcOffset": -3,
    "dst": "E"
  },
  "BGNS": {
    "iata": "JNS",
    "name": "Narsaq Heliport",
    "city": "Narsaq",
    "country": "Greenland",
    "latitude": 60.91728273,
    "longitude": -46.05992317,
    "altitude": 83,
    "utcOffset": -3,
    "dst": "E"
  },
  "BGQQ": {
    "iata": "NAQ",
    "name": "Qaanaaq Airport",
    "city": "Qaanaaq",
    "country": "Greenland",
    "latitude": 77.48860168,
    "longitude": -69.38870239,
    "altitude": 51,
    "utcOffset": -4,
    "dst": "E"
  },
  "BGSC": {
    "iata": "OBY",
    "name": "Ittoqqortoormiit Heliport",
    "city": "Ittoqqortoormiit",
    "country": "Greenland",
    "latitude": 70.48822882,
    "longitude": -21.97167993,
    "altitude": 238,
    "utcOffset": -1,
    "dst": "U"
  },
  "BGSF": {
    "iata": "SFJ",
    "name": "Kangerlussuaq Airport",
    "city": "Sondrestrom",
    "country": "Greenland",
    "latitude": 67.0122219,
    "longitude": -50.71160316,
    "altitude": 165,
    "utcOffset": -3,
    "dst": "E"
  },
  "BGSS": {
    "iata": "JHS",
    "name": "Sisimiut Airport",
    "city": "Sisimiut",
    "country": "Greenland",
    "latitude": 66.95130157,
    "longitude": -53.72930145,
    "altitude": 33,
    "utcOffset": -3,
    "dst": "E"
  },
  "BGTL": {
    "iata": "THU",
    "name": "Thule Air Base",
    "city": "Thule",
    "country": "Greenland",
    "latitude": 76.53119659,
    "longitude": -68.70320129,
    "altitude": 251,
    "utcOffset": -4,
    "dst": "E"
  },
  "BGUK": {
    "iata": "JUV",
    "name": "Upernavik Airport",
    "city": "Upernavik",
    "country": "Greenland",
    "latitude": 72.79019928,
    "longitude": -56.13059998,
    "altitude": 414,
    "utcOffset": -3,
    "dst": "E"
  },
  "BGUM": {
    "iata": "UMD",
    "name": "Uummannaq Heliport",
    "city": "Uummannaq",
    "country": "Greenland",
    "latitude": 70.68042793,
    "longitude": -52.11163044,
    "altitude": 50,
    "utcOffset": -3,
    "dst": "E"
  },
  "BGUQ": {
    "iata": "JQA",
    "name": "Qaarsut Airport",
    "city": "Uummannaq",
    "country": "Greenland",
    "latitude": 70.73419952,
    "longitude": -52.69620132,
    "altitude": 289,
    "utcOffset": -3,
    "dst": "E"
  },
  "BIAR": {
    "iata": "AEY",
    "name": "Akureyri Airport",
    "city": "Akureyri",
    "country": "Iceland",
    "latitude": 65.66000366,
    "longitude": -18.0727005,
    "altitude": 6,
    "utcOffset": 0,
    "dst": "N"
  },
  "BIBA": {
    "iata": "",
    "name": "Bakki Airport",
    "city": "Bakki",
    "country": "Iceland",
    "latitude": 63.55609894,
    "longitude": -20.13750076,
    "altitude": 45,
    "utcOffset": 0,
    "dst": "N"
  },
  "BIBD": {
    "iata": "BIU",
    "name": "Bildudalur Airport",
    "city": "Bildudalur",
    "country": "Iceland",
    "latitude": 65.64129639,
    "longitude": -23.5461998,
    "altitude": 18,
    "utcOffset": 0,
    "dst": "N"
  },
  "BIEG": {
    "iata": "EGS",
    "name": "Egilsstaðir Airport",
    "city": "Egilsstadir",
    "country": "Iceland",
    "latitude": 65.28330231,
    "longitude": -14.40139961,
    "altitude": 76,
    "utcOffset": 0,
    "dst": "N"
  },
  "BIGJ": {
    "iata": "GJR",
    "name": "Gjögur Airport",
    "city": "Gjogur",
    "country": "Iceland",
    "latitude": 65.99530029,
    "longitude": -21.32690048,
    "altitude": 83,
    "utcOffset": 0,
    "dst": "N"
  },
  "BIGR": {
    "iata": "GRY",
    "name": "Grímsey Airport",
    "city": "Grímsey",
    "country": "Iceland",
    "latitude": 66.5458,
    "longitude": -18.0173,
    "altitude": 66,
    "utcOffset": 0,
    "dst": "N"
  },
  "BIHN": {
    "iata": "HFN",
    "name": "Hornafjörður Airport",
    "city": "Hofn",
    "country": "Iceland",
    "latitude": 64.295601,
    "longitude": -15.2272,
    "altitude": 24,
    "utcOffset": 0,
    "dst": "N"
  },
  "BIHU": {
    "iata": "HZK",
    "name": "Húsavík Airport",
    "city": "Husavik",
    "country": "Iceland",
    "latitude": 65.952301,
    "longitude": -17.426001,
    "altitude": 48,
    "utcOffset": 0,
    "dst": "N"
  },
  "BIIS": {
    "iata": "IFJ",
    "name": "Ísafjörður Airport",
    "city": "Isafjordur",
    "country": "Iceland",
    "latitude": 66.05809784,
    "longitude": -23.13529968,
    "altitude": 8,
    "utcOffset": 0,
    "dst": "N"
  },
  "BIKF": {
    "iata": "KEF",
    "name": "Keflavik International Airport",
    "city": "Keflavik",
    "country": "Iceland",
    "latitude": 63.98500061,
    "longitude": -22.60560036,
    "altitude": 171,
    "utcOffset": 0,
    "dst": "N"
  },
  "BIKR": {
    "iata": "SAK",
    "name": "Sauðárkrókur Airport",
    "city": "Saudarkrokur",
    "country": "Iceland",
    "latitude": 65.73169708,
    "longitude": -19.57279968,
    "altitude": 8,
    "utcOffset": 0,
    "dst": "N"
  },
  "BINF": {
    "iata": "NOR",
    "name": "Norðfjörður Airport",
    "city": "Nordfjordur",
    "country": "Iceland",
    "latitude": 65.13189697,
    "longitude": -13.74639988,
    "altitude": 13,
    "utcOffset": 0,
    "dst": "E"
  },
  "BIPA": {
    "iata": "PFJ",
    "name": "Patreksfjörður Airport",
    "city": "Patreksfjordur",
    "country": "Iceland",
    "latitude": 65.555801,
    "longitude": -23.965,
    "altitude": 11,
    "utcOffset": 0,
    "dst": "N"
  },
  "BIRK": {
    "iata": "RKV",
    "name": "Reykjavik Airport",
    "city": "Reykjavik",
    "country": "Iceland",
    "latitude": 64.12999725,
    "longitude": -21.94059944,
    "altitude": 48,
    "utcOffset": 0,
    "dst": "N"
  },
  "BIRL": {
    "iata": "MVA",
    "name": "Reykjahlíð Airport",
    "city": "Myvatn",
    "country": "Iceland",
    "latitude": 65.65579987,
    "longitude": -16.91810036,
    "altitude": 1030,
    "utcOffset": 0,
    "dst": "N"
  },
  "BISF": {
    "iata": "",
    "name": "Selfoss Airport",
    "city": "Selfoss",
    "country": "Iceland",
    "latitude": 63.92919922,
    "longitude": -21.03779984,
    "altitude": 45,
    "utcOffset": 0,
    "dst": "N"
  },
  "BISI": {
    "iata": "SIJ",
    "name": "Siglufjörður Airport",
    "city": "Siglufjordur",
    "country": "Iceland",
    "latitude": 66.133301,
    "longitude": -18.9167,
    "altitude": 10,
    "utcOffset": 0,
    "dst": "N"
  },
  "BITN": {
    "iata": "THO",
    "name": "Thorshofn Airport",
    "city": "Thorshofn",
    "country": "Iceland",
    "latitude": 66.21849823,
    "longitude": -15.3355999,
    "altitude": 65,
    "utcOffset": 0,
    "dst": "N"
  },
  "BIVM": {
    "iata": "VEY",
    "name": "Vestmannaeyjar Airport",
    "city": "Vestmannaeyjar",
    "country": "Iceland",
    "latitude": 63.42430115,
    "longitude": -20.27890015,
    "altitude": 326,
    "utcOffset": 0,
    "dst": "N"
  },
  "BIVO": {
    "iata": "VPN",
    "name": "Vopnafjörður Airport",
    "city": "Vopnafjörður",
    "country": "Iceland",
    "latitude": 65.72059631,
    "longitude": -14.85060024,
    "altitude": 16,
    "utcOffset": 0,
    "dst": "N"
  },
  "BKPR": {
    "iata": "PRN",
    "name": "Priština International Airport",
    "city": "Pristina",
    "country": "Serbia",
    "latitude": 42.5728,
    "longitude": 21.035801,
    "altitude": 1789,
    "utcOffset": 1,
    "dst": "E"
  },
  "CAB3": {
    "iata": "YBW",
    "name": "Bedwell Harbour Seaplane Base",
    "city": "Bedwell Harbour",
    "country": "Canada",
    "latitude": 48.75,
    "longitude": -123.2330017,
    "altitude": 0,
    "utcOffset": -8,
    "dst": "A"
  },
  "CAC8": {
    "iata": "ZNA",
    "name": "Nanaimo Harbour Water Airport",
    "city": "Nanaimo",
    "country": "Canada",
    "latitude": 49.18330002,
    "longitude": -123.9499969,
    "altitude": 0,
    "utcOffset": -8,
    "dst": "A"
  },
  "CAD4": {
    "iata": "YZZ",
    "name": "Trail Airport",
    "city": "Trail",
    "country": "Canada",
    "latitude": 49.05559921,
    "longitude": -117.6090012,
    "altitude": 1427,
    "utcOffset": -8,
    "dst": "A"
  },
  "CAE5": {
    "iata": "YWS",
    "name": "Whistler/Green Lake Water Aerodrome",
    "city": "Whistler",
    "country": "Canada",
    "latitude": 50.14360046,
    "longitude": -122.9489975,
    "altitude": 2100,
    "utcOffset": -8,
    "dst": "A"
  },
  "CAJ4": {
    "iata": "YAA",
    "name": "Anahim Lake Airport",
    "city": "Anahim Lake",
    "country": "Canada",
    "latitude": 52.45249939,
    "longitude": -125.3030014,
    "altitude": 3635,
    "utcOffset": -8,
    "dst": "A"
  },
  "CAP5": {
    "iata": "",
    "name": "Victoria Airport",
    "city": "Patricia Bay",
    "country": "Canada",
    "latitude": 48.65389205,
    "longitude": -123.4504509,
    "altitude": 0,
    "utcOffset": -8,
    "dst": "A"
  },
  "CAQ3": {
    "iata": "",
    "name": "Coal Harbour Seaplane Base",
    "city": "Vancouver",
    "country": "Canada",
    "latitude": 50.59999847,
    "longitude": -127.5830002,
    "altitude": 0,
    "utcOffset": -8,
    "dst": "A"
  },
  "CAV3": {
    "iata": "",
    "name": "One Hundred Mile House Airport",
    "city": "One Hundred Mile House",
    "country": "Canada",
    "latitude": 51.64250183,
    "longitude": -121.3069992,
    "altitude": 3055,
    "utcOffset": -8,
    "dst": "A"
  },
  "CAX6": {
    "iata": "YGG",
    "name": "Ganges Seaplane Base",
    "city": "Ganges",
    "country": "Canada",
    "latitude": 48.8545,
    "longitude": -123.4969,
    "altitude": 0,
    "utcOffset": -8,
    "dst": "A"
  },
  "CBW4": {
    "iata": "YBO",
    "name": "Bob Quinn Lake Airport",
    "city": "Bob Quinn Lake",
    "country": "Canada",
    "latitude": 56.96670151,
    "longitude": -130.25,
    "altitude": 2000,
    "utcOffset": -8,
    "dst": "U"
  },
  "CCA6": {
    "iata": "YWM",
    "name": "Williams Harbour Airport",
    "city": "Williams Harbour",
    "country": "Canada",
    "latitude": 52.56689835,
    "longitude": -55.78469849,
    "altitude": 70,
    "utcOffset": -3.5,
    "dst": "A"
  },
  "CCD4": {
    "iata": "YSO",
    "name": "Postville Airport",
    "city": "Postville",
    "country": "Canada",
    "latitude": 54.9105,
    "longitude": -59.78507,
    "altitude": 193,
    "utcOffset": -4,
    "dst": "A"
  },
  "CCE4": {
    "iata": "YBI",
    "name": "Black Tickle Airport",
    "city": "Black Tickle",
    "country": "Canada",
    "latitude": 53.4693985,
    "longitude": -55.78499985,
    "altitude": 57,
    "utcOffset": -4,
    "dst": "A"
  },
  "CCK4": {
    "iata": "YFX",
    "name": "St. Lewis (Fox Harbour) Airport",
    "city": "St. Lewis",
    "country": "Canada",
    "latitude": 52.37279892,
    "longitude": -55.6739006,
    "altitude": 74,
    "utcOffset": -3.5,
    "dst": "A"
  },
  "CCP4": {
    "iata": "YHA",
    "name": "Port Hope Simpson Airport",
    "city": "Port Hope Simpson",
    "country": "Canada",
    "latitude": 52.52809906,
    "longitude": -56.28609848,
    "altitude": 347,
    "utcOffset": -3.5,
    "dst": "A"
  },
  "CCW3": {
    "iata": "",
    "name": "Waterville / Kings County Municipal Airport",
    "city": "Waterville",
    "country": "Canada",
    "latitude": 45.05189896,
    "longitude": -64.65170288,
    "altitude": 119,
    "utcOffset": -4,
    "dst": "A"
  },
  "CCZ2": {
    "iata": "YRG",
    "name": "Rigolet Airport",
    "city": "Rigolet",
    "country": "Canada",
    "latitude": 54.17969894,
    "longitude": -58.45750046,
    "altitude": 180,
    "utcOffset": -4,
    "dst": "A"
  },
  "CDG2": {
    "iata": "",
    "name": "Digby (General Hospital) Heliport",
    "city": "Tremblay-en-France",
    "country": "France",
    "latitude": 44.61610031,
    "longitude": -65.76190186,
    "altitude": 105,
    "utcOffset": 1,
    "dst": "E"
  },
  "CDU9": {
    "iata": "DU9",
    "name": "Dunnville Airport",
    "city": "Dunnville",
    "country": "Canada",
    "latitude": 42.87220001,
    "longitude": -79.59580231,
    "altitude": 600,
    "utcOffset": -5,
    "dst": "A"
  },
  "CEB3": {
    "iata": "YCK",
    "name": "Colville Lake Airport",
    "city": "Colville Lake",
    "country": "Canada",
    "latitude": 67.0392,
    "longitude": -126.08,
    "altitude": 850,
    "utcOffset": -7,
    "dst": "A"
  },
  "CEC4": {
    "iata": "",
    "name": "Hinton/Jasper-Hinton Airport",
    "city": "Hinton",
    "country": "Canada",
    "latitude": 53.31919861,
    "longitude": -117.7529984,
    "altitude": 4006,
    "utcOffset": -7,
    "dst": "A"
  },
  "CEG4": {
    "iata": "",
    "name": "Drumheller Municipal Airport",
    "city": "Drumheller",
    "country": "Canada",
    "latitude": 51.49639893,
    "longitude": -112.7490005,
    "altitude": 2597,
    "utcOffset": -7,
    "dst": "A"
  },
  "CEM3": {
    "iata": "YLE",
    "name": "Whatì Airport",
    "city": "Whatì",
    "country": "Canada",
    "latitude": 63.13169861,
    "longitude": -117.2460022,
    "altitude": 882,
    "utcOffset": -7,
    "dst": "A"
  },
  "CEW9": {
    "iata": "",
    "name": "Canmore Municipal Heliport",
    "city": "Canmore",
    "country": "Canada",
    "latitude": 51.07780075,
    "longitude": -115.3379974,
    "altitude": 4296,
    "utcOffset": -7,
    "dst": "A"
  },
  "CFJ2": {
    "iata": "YFJ",
    "name": "Wekweètì Airport",
    "city": "Wekweeti",
    "country": "Canada",
    "latitude": 64.190804,
    "longitude": -114.077002,
    "altitude": 1208,
    "utcOffset": -7,
    "dst": "A"
  },
  "CJM9": {
    "iata": "",
    "name": "Kenora Seaplane Base",
    "city": "Kenora",
    "country": "Canada",
    "latitude": 49.767424,
    "longitude": -94.49274,
    "altitude": 1060,
    "utcOffset": -6,
    "dst": "A"
  },
  "CJT2": {
    "iata": "",
    "name": "Matheson Island Airport",
    "city": "Matheson Island",
    "country": "Canada",
    "latitude": 51.73220062,
    "longitude": -96.93440247,
    "altitude": 725,
    "utcOffset": -6,
    "dst": "A"
  },
  "CJV7": {
    "iata": "SUR",
    "name": "Summer Beaver Airport",
    "city": "Summer Beaver",
    "country": "Canada",
    "latitude": 52.70859909,
    "longitude": -88.54190063,
    "altitude": 832,
    "utcOffset": -5,
    "dst": "A"
  },
  "CJX7": {
    "iata": "YAB",
    "name": "Old Arctic Bay Airport",
    "city": "Arctic Bay",
    "country": "Canada",
    "latitude": 73.00589225,
    "longitude": -85.0325489,
    "altitude": 100,
    "utcOffset": -6,
    "dst": "A"
  },
  "CKB6": {
    "iata": "YAX",
    "name": "Wapekeka Airport",
    "city": "Angling Lake",
    "country": "Canada",
    "latitude": 53.8492012,
    "longitude": -89.57939911,
    "altitude": 712,
    "utcOffset": -6,
    "dst": "A"
  },
  "CKD9": {
    "iata": "",
    "name": "Slate Falls Airport",
    "city": "Slate Falls",
    "country": "Canada",
    "latitude": 51.13000107,
    "longitude": -91.66560364,
    "altitude": 1355,
    "utcOffset": -6,
    "dst": "A"
  },
  "CKL3": {
    "iata": "WNN",
    "name": "Wunnumin Lake Airport",
    "city": "Wunnumin Lake",
    "country": "Canada",
    "latitude": 52.89390182,
    "longitude": -89.28919983,
    "altitude": 819,
    "utcOffset": -5,
    "dst": "A"
  },
  "CKM8": {
    "iata": "KM8",
    "name": "Opapimiskan Lake Airport",
    "city": "Musselwhite Mine",
    "country": "Canada",
    "latitude": 52.6067009,
    "longitude": -90.37689972,
    "altitude": 1023,
    "utcOffset": -5,
    "dst": "A"
  },
  "CKQ3": {
    "iata": "YNO",
    "name": "North Spirit Lake Airport",
    "city": "North Spirit Lake",
    "country": "Canada",
    "latitude": 52.49000168,
    "longitude": -92.97109985,
    "altitude": 1082,
    "utcOffset": -6,
    "dst": "A"
  },
  "CLA4": {
    "iata": "",
    "name": "Holland Landing Airpark",
    "city": "Holland Landing",
    "country": "Canada",
    "latitude": 44.08940125,
    "longitude": -79.49500275,
    "altitude": 855,
    "utcOffset": -5,
    "dst": "A"
  },
  "CNC3": {
    "iata": "",
    "name": "Brampton Airport",
    "city": "Brampton",
    "country": "Canada",
    "latitude": 43.76029968,
    "longitude": -79.875,
    "altitude": 935,
    "utcOffset": -5,
    "dst": "A"
  },
  "CND4": {
    "iata": "ND4",
    "name": "Stanhope Municipal Airport",
    "city": "Haliburton",
    "country": "Canada",
    "latitude": 45.11083333,
    "longitude": -78.64,
    "altitude": 1066,
    "utcOffset": -5,
    "dst": "A"
  },
  "CNE3": {
    "iata": "XBE",
    "name": "Bearskin Lake Airport",
    "city": "Bearskin Lake",
    "country": "Canada",
    "latitude": 53.96559906,
    "longitude": -91.02719879,
    "altitude": 800,
    "utcOffset": -6,
    "dst": "A"
  },
  "CNF4": {
    "iata": "NF4",
    "name": "Lindsay Airport",
    "city": "Lindsay",
    "country": "Canada",
    "latitude": 44.36470032,
    "longitude": -78.7838974,
    "altitude": 882,
    "utcOffset": -5,
    "dst": "A"
  },
  "CNH2": {
    "iata": "",
    "name": "Natuashish Airport",
    "city": "Natuashish",
    "country": "Canada",
    "latitude": 55.913898,
    "longitude": -61.184399,
    "altitude": 30,
    "utcOffset": -4,
    "dst": "A"
  },
  "CNJ4": {
    "iata": "",
    "name": "Orillia Airport",
    "city": "Orillia",
    "country": "Canada",
    "latitude": 44.67765578,
    "longitude": -79.3102169,
    "altitude": 725,
    "utcOffset": -5,
    "dst": "A"
  },
  "CNK4": {
    "iata": "YPD",
    "name": "Parry Sound Area Municipal Airport",
    "city": "Parry Sound",
    "country": "Canada",
    "latitude": 45.2575,
    "longitude": -79.829697,
    "altitude": 832,
    "utcOffset": -5,
    "dst": "A"
  },
  "CNM5": {
    "iata": "KIF",
    "name": "Kingfisher Lake Airport",
    "city": "Kingfisher Lake",
    "country": "Canada",
    "latitude": 53.01250076,
    "longitude": -89.8553009,
    "altitude": 866,
    "utcOffset": -5,
    "dst": "A"
  },
  "CNT3": {
    "iata": "YOG",
    "name": "Ogoki Post Airport",
    "city": "Ogoki Post",
    "country": "Canada",
    "latitude": 51.65859985,
    "longitude": -85.90170288,
    "altitude": 594,
    "utcOffset": -5,
    "dst": "A"
  },
  "CNU8": {
    "iata": "NU8",
    "name": "Markham Airport",
    "city": "Markham",
    "country": "Canada",
    "latitude": 43.93579865,
    "longitude": -79.2621994,
    "altitude": 807,
    "utcOffset": -5,
    "dst": "A"
  },
  "CNV8": {
    "iata": "",
    "name": "Edenvale Aerodrome",
    "city": "Edenvale",
    "country": "Canada",
    "latitude": 44.441101,
    "longitude": -79.962799,
    "altitude": 718,
    "utcOffset": -5,
    "dst": "A"
  },
  "CNY3": {
    "iata": "",
    "name": "Collingwood Airport",
    "city": "Collingwood",
    "country": "Canada",
    "latitude": 44.44919968,
    "longitude": -80.15830231,
    "altitude": 730,
    "utcOffset": -5,
    "dst": "A"
  },
  "CO00": {
    "iata": "",
    "name": "Flagler Aerial Spraying Inc Airport",
    "city": "Flagler",
    "country": "United States",
    "latitude": 39.27999878,
    "longitude": -103.0670013,
    "altitude": 4945,
    "utcOffset": -6,
    "dst": "A"
  },
  "CPV7": {
    "iata": "YHP",
    "name": "Poplar Hill Airport",
    "city": "Poplar Hill",
    "country": "Canada",
    "latitude": 52.11330032,
    "longitude": -94.25559998,
    "altitude": 1095,
    "utcOffset": -6,
    "dst": "A"
  },
  "CPV8": {
    "iata": "KEW",
    "name": "Keewaywin Airport",
    "city": "Keewaywin",
    "country": "Canada",
    "latitude": 52.99110031,
    "longitude": -92.83640289,
    "altitude": 988,
    "utcOffset": -6,
    "dst": "A"
  },
  "CSU2": {
    "iata": "YKU",
    "name": "Chisasibi Airport",
    "city": "Chisasibi",
    "country": "Canada",
    "latitude": 53.80559921,
    "longitude": -78.91690063,
    "altitude": 43,
    "utcOffset": -5,
    "dst": "A"
  },
  "CTB6": {
    "iata": "ZTB",
    "name": "Tête-à-la-Baleine Airport",
    "city": "Tête-à-la-Baleine",
    "country": "Canada",
    "latitude": 50.67440033,
    "longitude": -59.38359833,
    "altitude": 107,
    "utcOffset": -4,
    "dst": "A"
  },
  "CTK6": {
    "iata": "ZKG",
    "name": "Kegaska Airport",
    "city": "Kegaska",
    "country": "Canada",
    "latitude": 50.19580078,
    "longitude": -61.26580048,
    "altitude": 32,
    "utcOffset": -4,
    "dst": "A"
  },
  "CTT5": {
    "iata": "",
    "name": "La Romaine Airport",
    "city": "La Romaine",
    "country": "Canada",
    "latitude": 50.25970078,
    "longitude": -60.6794014,
    "altitude": 90,
    "utcOffset": -4,
    "dst": "A"
  },
  "CTU5": {
    "iata": "ZLT",
    "name": "La Tabatière Airport",
    "city": "La Tabatière",
    "country": "Canada",
    "latitude": 50.8307991,
    "longitude": -58.9756012,
    "altitude": 102,
    "utcOffset": -4,
    "dst": "A"
  },
  "CYAC": {
    "iata": "YAC",
    "name": "Cat Lake Airport",
    "city": "Cat Lake",
    "country": "Canada",
    "latitude": 51.72719955,
    "longitude": -91.82440186,
    "altitude": 1344,
    "utcOffset": -6,
    "dst": "A"
  },
  "CYAG": {
    "iata": "YAG",
    "name": "Fort Frances Municipal Airport",
    "city": "Fort Frances",
    "country": "Canada",
    "latitude": 48.65420151,
    "longitude": -93.43969727,
    "altitude": 1125,
    "utcOffset": -6,
    "dst": "A"
  },
  "CYAH": {
    "iata": "YAH",
    "name": "La Grande-4 Airport",
    "city": "La Grande-4",
    "country": "Canada",
    "latitude": 53.75469971,
    "longitude": -73.6753006,
    "altitude": 1005,
    "utcOffset": "N",
    "dst": "N"
  },
  "CYAL": {
    "iata": "YAL",
    "name": "Alert Bay Airport",
    "city": "Alert Bay",
    "country": "Canada",
    "latitude": 50.5821991,
    "longitude": -126.9160004,
    "altitude": 240,
    "utcOffset": "N",
    "dst": "N"
  },
  "CYAM": {
    "iata": "YAM",
    "name": "Sault Ste Marie Airport",
    "city": "Sault Sainte Marie",
    "country": "Canada",
    "latitude": 46.48500061,
    "longitude": -84.50939941,
    "altitude": 630,
    "utcOffset": -5,
    "dst": "A"
  },
  "CYAQ": {
    "iata": "XKS",
    "name": "Kasabonika Airport",
    "city": "Kasabonika",
    "country": "Canada",
    "latitude": 53.52470016,
    "longitude": -88.64279938,
    "altitude": 672,
    "utcOffset": -5,
    "dst": "A"
  },
  "CYAS": {
    "iata": "YKG",
    "name": "Kangirsuk Airport",
    "city": "Kangirsuk",
    "country": "Canada",
    "latitude": 60.02719879,
    "longitude": -69.99919891,
    "altitude": 403,
    "utcOffset": -5,
    "dst": "A"
  },
  "CYAT": {
    "iata": "YAT",
    "name": "Attawapiskat Airport",
    "city": "Attawapiskat",
    "country": "Canada",
    "latitude": 52.92750168,
    "longitude": -82.43190002,
    "altitude": 31,
    "utcOffset": -5,
    "dst": "A"
  },
  "CYAU": {
    "iata": "",
    "name": "Liverpool South Shore Regional Airport",
    "city": "Liverpool",
    "country": "Canada",
    "latitude": 44.2303009,
    "longitude": -64.85610199,
    "altitude": 321,
    "utcOffset": "N",
    "dst": "N"
  },
  "CYAV": {
    "iata": "YAV",
    "name": "Winnipeg / St. Andrews Airport",
    "city": "Winnipeg",
    "country": "Canada",
    "latitude": 50.0564003,
    "longitude": -97.03250122,
    "altitude": 760,
    "utcOffset": -6,
    "dst": "A"
  },
  "CYAW": {
    "iata": "YAW",
    "name": "Halifax / CFB Shearwater Heliport",
    "city": "Halifax",
    "country": "Canada",
    "latitude": 44.63970184,
    "longitude": -63.49940109,
    "altitude": 144,
    "utcOffset": -4,
    "dst": "A"
  },
  "CYAX": {
    "iata": "",
    "name": "Lac Du Bonnet Airport",
    "city": "Lac Du Bonnet",
    "country": "Canada",
    "latitude": 50.29439926,
    "longitude": -96.01000214,
    "altitude": 850,
    "utcOffset": -6,
    "dst": "A"
  },
  "CYAY": {
    "iata": "YAY",
    "name": "St. Anthony Airport",
    "city": "St. Anthony",
    "country": "Canada",
    "latitude": 51.39189911,
    "longitude": -56.08309937,
    "altitude": 108,
    "utcOffset": -3.5,
    "dst": "A"
  },
  "CYAZ": {
    "iata": "YAZ",
    "name": "Tofino / Long Beach Airport",
    "city": "Tofino",
    "country": "Canada",
    "latitude": 49.079833,
    "longitude": -125.775583,
    "altitude": 80,
    "utcOffset": -8,
    "dst": "A"
  },
  "CYBA": {
    "iata": "YBA",
    "name": "Banff Airport",
    "city": "Banff",
    "country": "Canada",
    "latitude": 51.20734047,
    "longitude": -115.5418611,
    "altitude": 4583,
    "utcOffset": -7,
    "dst": "A"
  },
  "CYBB": {
    "iata": "YBB",
    "name": "Kugaaruk Airport",
    "city": "Pelly Bay",
    "country": "Canada",
    "latitude": 68.534401,
    "longitude": -89.808098,
    "altitude": 56,
    "utcOffset": -7,
    "dst": "A"
  },
  "CYBC": {
    "iata": "YBC",
    "name": "Baie Comeau Airport",
    "city": "Baie Comeau",
    "country": "Canada",
    "latitude": 49.13249969,
    "longitude": -68.20439911,
    "altitude": 71,
    "utcOffset": -5,
    "dst": "A"
  },
  "CYBD": {
    "iata": "QBC",
    "name": "Bella Coola Airport",
    "city": "Bella Coola",
    "country": "Canada",
    "latitude": 52.387501,
    "longitude": -126.596001,
    "altitude": 117,
    "utcOffset": -8,
    "dst": "A"
  },
  "CYBE": {
    "iata": "YBE",
    "name": "Uranium City Airport",
    "city": "Uranium City",
    "country": "Canada",
    "latitude": 59.56140137,
    "longitude": -108.4810028,
    "altitude": 1044,
    "utcOffset": -6,
    "dst": "N"
  },
  "CYBF": {
    "iata": "YBY",
    "name": "Bonnyville Airport",
    "city": "Bonnyville",
    "country": "Canada",
    "latitude": 54.304199,
    "longitude": -110.744003,
    "altitude": 1836,
    "utcOffset": -7,
    "dst": "A"
  },
  "CYBG": {
    "iata": "YBG",
    "name": "CFB Bagotville",
    "city": "Bagotville",
    "country": "Canada",
    "latitude": 48.33060074,
    "longitude": -70.99639893,
    "altitude": 522,
    "utcOffset": -5,
    "dst": "A"
  },
  "CYBK": {
    "iata": "YBK",
    "name": "Baker Lake Airport",
    "city": "Baker Lake",
    "country": "Canada",
    "latitude": 64.29889679,
    "longitude": -96.07779694,
    "altitude": 59,
    "utcOffset": -6,
    "dst": "A"
  },
  "CYBL": {
    "iata": "YBL",
    "name": "Campbell River Airport",
    "city": "Campbell River",
    "country": "Canada",
    "latitude": 49.95080185,
    "longitude": -125.2710037,
    "altitude": 346,
    "utcOffset": -8,
    "dst": "A"
  },
  "CYBQ": {
    "iata": "XTL",
    "name": "Tadoule Lake Airport",
    "city": "Tadoule Lake",
    "country": "Canada",
    "latitude": 58.7061,
    "longitude": -98.512199,
    "altitude": 923,
    "utcOffset": -6,
    "dst": "A"
  },
  "CYBR": {
    "iata": "YBR",
    "name": "Brandon Municipal Airport",
    "city": "Brandon",
    "country": "Canada",
    "latitude": 49.91,
    "longitude": -99.951897,
    "altitude": 1343,
    "utcOffset": -6,
    "dst": "A"
  },
  "CYBT": {
    "iata": "YBT",
    "name": "Brochet Airport",
    "city": "Brochet",
    "country": "Canada",
    "latitude": 57.8894,
    "longitude": -101.679001,
    "altitude": 1136,
    "utcOffset": -6,
    "dst": "A"
  },
  "CYBU": {
    "iata": "YBU",
    "name": "Nipawin Airport",
    "city": "Nipawin",
    "country": "Canada",
    "latitude": 53.33250046,
    "longitude": -104.0080032,
    "altitude": 1220,
    "utcOffset": "N",
    "dst": "N"
  },
  "CYBV": {
    "iata": "YBV",
    "name": "Berens River Airport",
    "city": "Berens River",
    "country": "Canada",
    "latitude": 52.358898,
    "longitude": -97.018303,
    "altitude": 728,
    "utcOffset": -6,
    "dst": "A"
  },
  "CYBW": {
    "iata": "",
    "name": "Calgary / Springbank Airport",
    "city": "Calgary",
    "country": "Canada",
    "latitude": 51.10309982,
    "longitude": -114.3740005,
    "altitude": 3940,
    "utcOffset": -7,
    "dst": "A"
  },
  "CYBX": {
    "iata": "YBX",
    "name": "Lourdes de Blanc Sablon Airport",
    "city": "Lourdes-De-Blanc-Sablon",
    "country": "Canada",
    "latitude": 51.4435997,
    "longitude": -57.18529892,
    "altitude": 121,
    "utcOffset": -4,
    "dst": "A"
  },
  "CYCA": {
    "iata": "YRF",
    "name": "Cartwright Airport",
    "city": "Cartwright",
    "country": "Canada",
    "latitude": 53.68280029,
    "longitude": -57.04190063,
    "altitude": 40,
    "utcOffset": -4,
    "dst": "A"
  },
  "CYCB": {
    "iata": "YCB",
    "name": "Cambridge Bay Airport",
    "city": "Cambridge Bay",
    "country": "Canada",
    "latitude": 69.10810089,
    "longitude": -105.1380005,
    "altitude": 90,
    "utcOffset": -7,
    "dst": "A"
  },
  "CYCC": {
    "iata": "YCC",
    "name": "Cornwall Regional Airport",
    "city": "Cornwall",
    "country": "Canada",
    "latitude": 45.09280014,
    "longitude": -74.56330109,
    "altitude": 175,
    "utcOffset": -5,
    "dst": "A"
  },
  "CYCD": {
    "iata": "YCD",
    "name": "Nanaimo Airport",
    "city": "Nanaimo",
    "country": "Canada",
    "latitude": 49.05497022,
    "longitude": -123.8698626,
    "altitude": 92,
    "utcOffset": -8,
    "dst": "A"
  },
  "CYCE": {
    "iata": "YCE",
    "name": "James T. Field Memorial Aerodrome",
    "city": "Centralia",
    "country": "Canada",
    "latitude": 43.285599,
    "longitude": -81.508301,
    "altitude": 824,
    "utcOffset": "N",
    "dst": "N"
  },
  "CYCG": {
    "iata": "YCG",
    "name": "Castlegar/West Kootenay Regional Airport",
    "city": "Castlegar",
    "country": "Canada",
    "latitude": 49.29639816,
    "longitude": -117.6320038,
    "altitude": 1624,
    "utcOffset": -8,
    "dst": "A"
  },
  "CYCH": {
    "iata": "YCH",
    "name": "Miramichi Airport",
    "city": "Chatham",
    "country": "Canada",
    "latitude": 47.007801,
    "longitude": -65.449203,
    "altitude": 108,
    "utcOffset": -4,
    "dst": "A"
  },
  "CYCL": {
    "iata": "YCL",
    "name": "Charlo Airport",
    "city": "Charlo",
    "country": "Canada",
    "latitude": 47.990799,
    "longitude": -66.330299,
    "altitude": 132,
    "utcOffset": -4,
    "dst": "A"
  },
  "CYCN": {
    "iata": "YCN",
    "name": "Cochrane Airport",
    "city": "Cochrane",
    "country": "Canada",
    "latitude": 49.10559845,
    "longitude": -81.01360321,
    "altitude": 861,
    "utcOffset": -5,
    "dst": "A"
  },
  "CYCO": {
    "iata": "YCO",
    "name": "Kugluktuk Airport",
    "city": "Coppermine",
    "country": "Canada",
    "latitude": 67.8167038,
    "longitude": -115.1439972,
    "altitude": 74,
    "utcOffset": -7,
    "dst": "A"
  },
  "CYCP": {
    "iata": "YCP",
    "name": "Blue River Airport",
    "city": "Blue River",
    "country": "Canada",
    "latitude": 52.11669922,
    "longitude": -119.2829971,
    "altitude": 2240,
    "utcOffset": "N",
    "dst": "N"
  },
  "CYCQ": {
    "iata": "YCQ",
    "name": "Chetwynd Airport",
    "city": "Chetwynd",
    "country": "Canada",
    "latitude": 55.68719864,
    "longitude": -121.6269989,
    "altitude": 2000,
    "utcOffset": "N",
    "dst": "N"
  },
  "CYCR": {
    "iata": "YCR",
    "name": "Cross Lake (Charlie Sinclair Memorial) Airport",
    "city": "Cross Lake",
    "country": "Canada",
    "latitude": 54.61059952,
    "longitude": -97.76080322,
    "altitude": 709,
    "utcOffset": -6,
    "dst": "A"
  },
  "CYCS": {
    "iata": "YCS",
    "name": "Chesterfield Inlet Airport",
    "city": "Chesterfield Inlet",
    "country": "Canada",
    "latitude": 63.34690094,
    "longitude": -90.73110199,
    "altitude": 32,
    "utcOffset": -6,
    "dst": "A"
  },
  "CYCT": {
    "iata": "YCT",
    "name": "Coronation Airport",
    "city": "Coronation",
    "country": "Canada",
    "latitude": 52.07500076,
    "longitude": -111.4449997,
    "altitude": 2595,
    "utcOffset": -7,
    "dst": "A"
  },
  "CYCW": {
    "iata": "YCW",
    "name": "Chilliwack Airport",
    "city": "Chilliwack",
    "country": "Canada",
    "latitude": 49.15280151,
    "longitude": -121.939003,
    "altitude": 32,
    "utcOffset": -8,
    "dst": "A"
  },
  "CYCY": {
    "iata": "YCY",
    "name": "Clyde River Airport",
    "city": "Clyde River",
    "country": "Canada",
    "latitude": 70.48609924,
    "longitude": -68.51670074,
    "altitude": 87,
    "utcOffset": -5,
    "dst": "A"
  },
  "CYDA": {
    "iata": "YDA",
    "name": "Dawson City Airport",
    "city": "Dawson",
    "country": "Canada",
    "latitude": 64.04309845,
    "longitude": -139.128006,
    "altitude": 1215,
    "utcOffset": -8,
    "dst": "A"
  },
  "CYDB": {
    "iata": "YDB",
    "name": "Burwash Airport",
    "city": "Burwash",
    "country": "Canada",
    "latitude": 61.37110138,
    "longitude": -139.0410004,
    "altitude": 2647,
    "utcOffset": -8,
    "dst": "A"
  },
  "CYDC": {
    "iata": "YDC",
    "name": "Princeton Airport",
    "city": "Princeton",
    "country": "Canada",
    "latitude": 49.4681015,
    "longitude": -120.5110016,
    "altitude": 2298,
    "utcOffset": -8,
    "dst": "A"
  },
  "CYDF": {
    "iata": "YDF",
    "name": "Deer Lake Airport",
    "city": "Deer Lake",
    "country": "Canada",
    "latitude": 49.21080017,
    "longitude": -57.39139938,
    "altitude": 72,
    "utcOffset": -3.5,
    "dst": "A"
  },
  "CYDL": {
    "iata": "YDL",
    "name": "Dease Lake Airport",
    "city": "Dease Lake",
    "country": "Canada",
    "latitude": 58.42219925,
    "longitude": -130.0319977,
    "altitude": 2600,
    "utcOffset": -8,
    "dst": "A"
  },
  "CYDM": {
    "iata": "XRR",
    "name": "Ross River Airport",
    "city": "Ross River",
    "country": "Canada",
    "latitude": 61.97060013,
    "longitude": -132.4230042,
    "altitude": 2314,
    "utcOffset": "N",
    "dst": "N"
  },
  "CYDN": {
    "iata": "YDN",
    "name": "Dauphin Barker Airport",
    "city": "Dauphin",
    "country": "Canada",
    "latitude": 51.10079956,
    "longitude": -100.052002,
    "altitude": 999,
    "utcOffset": -6,
    "dst": "A"
  },
  "CYDO": {
    "iata": "YDO",
    "name": "Dolbeau St Felicien Airport",
    "city": "Dolbeau-St-Félicien",
    "country": "Canada",
    "latitude": 48.7784996,
    "longitude": -72.375,
    "altitude": 372,
    "utcOffset": "N",
    "dst": "N"
  },
  "CYDP": {
    "iata": "YDP",
    "name": "Nain Airport",
    "city": "Nain",
    "country": "Canada",
    "latitude": 56.54919815,
    "longitude": -61.68030167,
    "altitude": 22,
    "utcOffset": -4,
    "dst": "A"
  },
  "CYDQ": {
    "iata": "YDQ",
    "name": "Dawson Creek Airport",
    "city": "Dawson Creek",
    "country": "Canada",
    "latitude": 55.74229813,
    "longitude": -120.1829987,
    "altitude": 2148,
    "utcOffset": -7,
    "dst": "A"
  },
  "CYEE": {
    "iata": "YEE",
    "name": "Huronia Airport",
    "city": "Midland",
    "country": "Canada",
    "latitude": 44.68330002,
    "longitude": -79.92829895,
    "altitude": 770,
    "utcOffset": -5,
    "dst": "A"
  },
  "CYEG": {
    "iata": "YEG",
    "name": "Edmonton International Airport",
    "city": "Edmonton",
    "country": "Canada",
    "latitude": 53.30970001,
    "longitude": -113.5800018,
    "altitude": 2373,
    "utcOffset": -7,
    "dst": "A"
  },
  "CYEK": {
    "iata": "YEK",
    "name": "Arviat Airport",
    "city": "Eskimo Point",
    "country": "Canada",
    "latitude": 61.09420013,
    "longitude": -94.07080078,
    "altitude": 32,
    "utcOffset": -6,
    "dst": "A"
  },
  "CYEL": {
    "iata": "YEL",
    "name": "Elliot Lake Municipal Airport",
    "city": "ELLIOT LAKE",
    "country": "Canada",
    "latitude": 46.35139847,
    "longitude": -82.56140137,
    "altitude": 1087,
    "utcOffset": -5,
    "dst": "A"
  },
  "CYEM": {
    "iata": "YEM",
    "name": "Manitoulin East Municipal Airport",
    "city": "Manitowaning",
    "country": "Canada",
    "latitude": 45.84280014,
    "longitude": -81.85810089,
    "altitude": 869,
    "utcOffset": -5,
    "dst": "A"
  },
  "CYEN": {
    "iata": "YEN",
    "name": "Estevan Airport",
    "city": "Estevan",
    "country": "Canada",
    "latitude": 49.21030045,
    "longitude": -102.9660034,
    "altitude": 1905,
    "utcOffset": -6,
    "dst": "N"
  },
  "CYER": {
    "iata": "YER",
    "name": "Fort Severn Airport",
    "city": "Fort Severn",
    "country": "Canada",
    "latitude": 56.01890182,
    "longitude": -87.67610168,
    "altitude": 48,
    "utcOffset": -5,
    "dst": "A"
  },
  "CYET": {
    "iata": "YET",
    "name": "Edson Airport",
    "city": "Edson",
    "country": "Canada",
    "latitude": 53.57889938,
    "longitude": -116.4649963,
    "altitude": 3043,
    "utcOffset": -7,
    "dst": "A"
  },
  "CYEU": {
    "iata": "YEU",
    "name": "Eureka Airport",
    "city": "Eureka",
    "country": "Canada",
    "latitude": 79.99469757,
    "longitude": -85.81420136,
    "altitude": 256,
    "utcOffset": -6,
    "dst": "A"
  },
  "CYEV": {
    "iata": "YEV",
    "name": "Inuvik Mike Zubko Airport",
    "city": "Inuvik",
    "country": "Canada",
    "latitude": 68.30419922,
    "longitude": -133.4830017,
    "altitude": 224,
    "utcOffset": -7,
    "dst": "A"
  },
  "CYEY": {
    "iata": "YEY",
    "name": "Amos Magny Airport",
    "city": "Amos",
    "country": "Canada",
    "latitude": 48.56389999,
    "longitude": -78.24970245,
    "altitude": 1068,
    "utcOffset": "N",
    "dst": "N"
  },
  "CYFA": {
    "iata": "YFA",
    "name": "Fort Albany Airport",
    "city": "Fort Albany",
    "country": "Canada",
    "latitude": 52.20140076,
    "longitude": -81.69689941,
    "altitude": 48,
    "utcOffset": -5,
    "dst": "A"
  },
  "CYFB": {
    "iata": "YFB",
    "name": "Iqaluit Airport",
    "city": "Iqaluit",
    "country": "Canada",
    "latitude": 63.75640106,
    "longitude": -68.55580139,
    "altitude": 110,
    "utcOffset": -5,
    "dst": "A"
  },
  "CYFC": {
    "iata": "YFC",
    "name": "Fredericton Airport",
    "city": "Fredericton",
    "country": "Canada",
    "latitude": 45.8689003,
    "longitude": -66.53720093,
    "altitude": 68,
    "utcOffset": -4,
    "dst": "A"
  },
  "CYFD": {
    "iata": "YFD",
    "name": "Brantford Municipal Airport",
    "city": "Brantford",
    "country": "Canada",
    "latitude": 43.13140106,
    "longitude": -80.34249878,
    "altitude": 815,
    "utcOffset": -5,
    "dst": "A"
  },
  "CYFE": {
    "iata": "",
    "name": "Forestville Airport",
    "city": "Forestville",
    "country": "Canada",
    "latitude": 48.74610138,
    "longitude": -69.09719849,
    "altitude": 293,
    "utcOffset": -5,
    "dst": "A"
  },
  "CYFH": {
    "iata": "YFH",
    "name": "Fort Hope Airport",
    "city": "Fort Hope",
    "country": "Canada",
    "latitude": 51.56190109,
    "longitude": -87.90779877,
    "altitude": 899,
    "utcOffset": -5,
    "dst": "A"
  },
  "CYFJ": {
    "iata": "YTM",
    "name": "La Macaza / Mont-Tremblant International Inc Airport",
    "city": "Mont-Tremblant",
    "country": "Canada",
    "latitude": 46.40940094,
    "longitude": -74.77999878,
    "altitude": 827,
    "utcOffset": -5,
    "dst": "A"
  },
  "CYFO": {
    "iata": "YFO",
    "name": "Flin Flon Airport",
    "city": "Flin Flon",
    "country": "Canada",
    "latitude": 54.67810059,
    "longitude": -101.6819992,
    "altitude": 997,
    "utcOffset": -6,
    "dst": "A"
  },
  "CYFR": {
    "iata": "YFR",
    "name": "Fort Resolution Airport",
    "city": "Fort Resolution",
    "country": "Canada",
    "latitude": 61.18080139,
    "longitude": -113.6900024,
    "altitude": 526,
    "utcOffset": -7,
    "dst": "A"
  },
  "CYFS": {
    "iata": "YFS",
    "name": "Fort Simpson Airport",
    "city": "Fort Simpson",
    "country": "Canada",
    "latitude": 61.7602005,
    "longitude": -121.2369995,
    "altitude": 555,
    "utcOffset": -7,
    "dst": "A"
  },
  "CYFT": {
    "iata": "YMN",
    "name": "Makkovik Airport",
    "city": "Makkovik",
    "country": "Canada",
    "latitude": 55.07690048,
    "longitude": -59.18640137,
    "altitude": 234,
    "utcOffset": -4,
    "dst": "A"
  },
  "CYGB": {
    "iata": "YGB",
    "name": "Texada Gillies Bay Airport",
    "city": "Texada",
    "country": "Canada",
    "latitude": 49.69419861,
    "longitude": -124.5179977,
    "altitude": 326,
    "utcOffset": -8,
    "dst": "A"
  },
  "CYGD": {
    "iata": "YGD",
    "name": "Goderich Airport",
    "city": "Goderich",
    "country": "Canada",
    "latitude": 43.76689911,
    "longitude": -81.71060181,
    "altitude": 712,
    "utcOffset": "N",
    "dst": "N"
  },
  "CYGE": {
    "iata": "YGE",
    "name": "Golden Airport",
    "city": "Golden",
    "country": "Canada",
    "latitude": 51.299196,
    "longitude": -116.982002,
    "altitude": 2575,
    "utcOffset": -7,
    "dst": "A"
  },
  "CYGH": {
    "iata": "YGH",
    "name": "Fort Good Hope Airport",
    "city": "Fort Good Hope",
    "country": "Canada",
    "latitude": 66.24079895,
    "longitude": -128.651001,
    "altitude": 268,
    "utcOffset": -7,
    "dst": "A"
  },
  "CYGK": {
    "iata": "YGK",
    "name": "Kingston Norman Rogers Airport",
    "city": "Kingston",
    "country": "Canada",
    "latitude": 44.22529984,
    "longitude": -76.59690094,
    "altitude": 305,
    "utcOffset": -5,
    "dst": "A"
  },
  "CYGL": {
    "iata": "YGL",
    "name": "La Grande Rivière Airport",
    "city": "La Grande Riviere",
    "country": "Canada",
    "latitude": 53.62530136,
    "longitude": -77.70420074,
    "altitude": 639,
    "utcOffset": -5,
    "dst": "A"
  },
  "CYGM": {
    "iata": "YGM",
    "name": "Gimli Industrial Park Airport",
    "city": "Gimli",
    "country": "Canada",
    "latitude": 50.62810135,
    "longitude": -97.04329681,
    "altitude": 753,
    "utcOffset": -6,
    "dst": "A"
  },
  "CYGO": {
    "iata": "YGO",
    "name": "Gods Lake Narrows Airport",
    "city": "Gods Lake Narrows",
    "country": "Canada",
    "latitude": 54.55889893,
    "longitude": -94.49140167,
    "altitude": 617,
    "utcOffset": -6,
    "dst": "A"
  },
  "CYGP": {
    "iata": "YGP",
    "name": "Gaspé (Michel-Pouliot) Airport",
    "city": "Gaspe",
    "country": "Canada",
    "latitude": 48.77529907,
    "longitude": -64.47859955,
    "altitude": 112,
    "utcOffset": -5,
    "dst": "A"
  },
  "CYGQ": {
    "iata": "YGQ",
    "name": "Geraldton Greenstone Regional Airport",
    "city": "Geraldton",
    "country": "Canada",
    "latitude": 49.77830124,
    "longitude": -86.93939972,
    "altitude": 1144,
    "utcOffset": -5,
    "dst": "A"
  },
  "CYGR": {
    "iata": "YGR",
    "name": "Îles-de-la-Madeleine Airport",
    "city": "Iles De La Madeleine",
    "country": "Canada",
    "latitude": 47.42470169,
    "longitude": -61.77809906,
    "altitude": 35,
    "utcOffset": -5,
    "dst": "A"
  },
  "CYGT": {
    "iata": "YGT",
    "name": "Igloolik Airport",
    "city": "Igloolik",
    "country": "Canada",
    "latitude": 69.36470032,
    "longitude": -81.81610107,
    "altitude": 174,
    "utcOffset": -5,
    "dst": "A"
  },
  "CYGV": {
    "iata": "YGV",
    "name": "Havre St Pierre Airport",
    "city": "Havre-Saint-Pierre",
    "country": "Canada",
    "latitude": 50.2818985,
    "longitude": -63.6114006,
    "altitude": 124,
    "utcOffset": -5,
    "dst": "A"
  },
  "CYGW": {
    "iata": "YGW",
    "name": "Kuujjuarapik Airport",
    "city": "Kuujjuarapik",
    "country": "Canada",
    "latitude": 55.2818985,
    "longitude": -77.76529694,
    "altitude": 34,
    "utcOffset": -5,
    "dst": "A"
  },
  "CYGX": {
    "iata": "YGX",
    "name": "Gillam Airport",
    "city": "Gillam",
    "country": "Canada",
    "latitude": 56.35749817,
    "longitude": -94.71060181,
    "altitude": 476,
    "utcOffset": -6,
    "dst": "A"
  },
  "CYGZ": {
    "iata": "YGZ",
    "name": "Grise Fiord Airport",
    "city": "Grise Fiord",
    "country": "Canada",
    "latitude": 76.42610168,
    "longitude": -82.90920258,
    "altitude": 146,
    "utcOffset": -5,
    "dst": "A"
  },
  "CYHA": {
    "iata": "YQC",
    "name": "Quaqtaq Airport",
    "city": "Quaqtaq",
    "country": "Canada",
    "latitude": 61.04639816,
    "longitude": -69.61779785,
    "altitude": 103,
    "utcOffset": -5,
    "dst": "A"
  },
  "CYHB": {
    "iata": "YHB",
    "name": "Hudson Bay Airport",
    "city": "Hudson Bay",
    "country": "Canada",
    "latitude": 52.81669998,
    "longitude": -102.310997,
    "altitude": 1175,
    "utcOffset": -6,
    "dst": "N"
  },
  "CYHC": {
    "iata": "CXH",
    "name": "Vancouver Harbour Water Aerodrome",
    "city": "Vancouver",
    "country": "Canada",
    "latitude": 49.29439926,
    "longitude": -123.1110001,
    "altitude": 0,
    "utcOffset": -8,
    "dst": "A"
  },
  "CYHD": {
    "iata": "YHD",
    "name": "Dryden Regional Airport",
    "city": "Dryden",
    "country": "Canada",
    "latitude": 49.83169937,
    "longitude": -92.74420166,
    "altitude": 1354,
    "utcOffset": -6,
    "dst": "A"
  },
  "CYHE": {
    "iata": "YHE",
    "name": "Hope Airport",
    "city": "Hope",
    "country": "Canada",
    "latitude": 49.36830139,
    "longitude": -121.4980011,
    "altitude": 128,
    "utcOffset": "N",
    "dst": "N"
  },
  "CYHF": {
    "iata": "YHF",
    "name": "Hearst René Fontaine Municipal Airport",
    "city": "Hearst",
    "country": "Canada",
    "latitude": 49.71419907,
    "longitude": -83.68609619,
    "altitude": 827,
    "utcOffset": -5,
    "dst": "A"
  },
  "CYHH": {
    "iata": "YNS",
    "name": "Nemiscau Airport",
    "city": "Nemiscau",
    "country": "Canada",
    "latitude": 51.69110107,
    "longitude": -76.13559723,
    "altitude": 802,
    "utcOffset": -5,
    "dst": "A"
  },
  "CYHI": {
    "iata": "YHI",
    "name": "Ulukhaktok Holman Airport",
    "city": "Holman Island",
    "country": "Canada",
    "latitude": 70.76280212,
    "longitude": -117.8059998,
    "altitude": 117,
    "utcOffset": -7,
    "dst": "A"
  },
  "CYHK": {
    "iata": "YHK",
    "name": "Gjoa Haven Airport",
    "city": "Gjoa Haven",
    "country": "Canada",
    "latitude": 68.63559723,
    "longitude": -95.84970093,
    "altitude": 152,
    "utcOffset": -7,
    "dst": "A"
  },
  "CYHM": {
    "iata": "YHM",
    "name": "John C. Munro Hamilton International Airport",
    "city": "Hamilton",
    "country": "Canada",
    "latitude": 43.17359924,
    "longitude": -79.93499756,
    "altitude": 780,
    "utcOffset": -5,
    "dst": "A"
  },
  "CYHN": {
    "iata": "YHN",
    "name": "Hornepayne Municipal Airport",
    "city": "Hornepayne",
    "country": "Canada",
    "latitude": 49.19309998,
    "longitude": -84.7589035,
    "altitude": 1099,
    "utcOffset": -5,
    "dst": "A"
  },
  "CYHO": {
    "iata": "YHO",
    "name": "Hopedale Airport",
    "city": "Hopedale",
    "country": "Canada",
    "latitude": 55.44829941,
    "longitude": -60.22859955,
    "altitude": 39,
    "utcOffset": -4,
    "dst": "A"
  },
  "CYHR": {
    "iata": "YHR",
    "name": "Chevery Airport",
    "city": "Chevery",
    "country": "Canada",
    "latitude": 50.46889877,
    "longitude": -59.63669968,
    "altitude": 39,
    "utcOffset": -4,
    "dst": "A"
  },
  "CYHS": {
    "iata": "",
    "name": "Hanover / Saugeen Municipal Airport",
    "city": "Hanover",
    "country": "Canada",
    "latitude": 44.158298,
    "longitude": -81.062798,
    "altitude": 939,
    "utcOffset": -5,
    "dst": "A"
  },
  "CYHT": {
    "iata": "YHT",
    "name": "Haines Junction Airport",
    "city": "Haines Junction",
    "country": "Canada",
    "latitude": 60.78919983,
    "longitude": -137.5460052,
    "altitude": 2150,
    "utcOffset": "N",
    "dst": "N"
  },
  "CYHU": {
    "iata": "YHU",
    "name": "Montréal / Saint-Hubert Airport",
    "city": "Montreal",
    "country": "Canada",
    "latitude": 45.51750183,
    "longitude": -73.41690063,
    "altitude": 90,
    "utcOffset": -5,
    "dst": "A"
  },
  "CYHY": {
    "iata": "YHY",
    "name": "Hay River / Merlyn Carter Airport",
    "city": "Hay River",
    "country": "Canada",
    "latitude": 60.83969879,
    "longitude": -115.7829971,
    "altitude": 541,
    "utcOffset": -7,
    "dst": "A"
  },
  "CYHZ": {
    "iata": "YHZ",
    "name": "Halifax / Stanfield International Airport",
    "city": "Halifax",
    "country": "Canada",
    "latitude": 44.88079834,
    "longitude": -63.50859833,
    "altitude": 477,
    "utcOffset": -4,
    "dst": "A"
  },
  "CYIB": {
    "iata": "YIB",
    "name": "Atikokan Municipal Airport",
    "city": "Atikokan",
    "country": "Canada",
    "latitude": 48.77389908,
    "longitude": -91.63860321,
    "altitude": 1408,
    "utcOffset": -5,
    "dst": "A"
  },
  "CYID": {
    "iata": "YDG",
    "name": "Digby / Annapolis Regional Airport",
    "city": "Digby",
    "country": "Canada",
    "latitude": 44.54584504,
    "longitude": -65.78542471,
    "altitude": 499,
    "utcOffset": "N",
    "dst": "N"
  },
  "CYIF": {
    "iata": "YIF",
    "name": "St Augustin Airport",
    "city": "St-Augustin",
    "country": "Canada",
    "latitude": 51.21170044,
    "longitude": -58.65829849,
    "altitude": 20,
    "utcOffset": -4,
    "dst": "A"
  },
  "CYIK": {
    "iata": "YIK",
    "name": "Ivujivik Airport",
    "city": "Ivujivik",
    "country": "Canada",
    "latitude": 62.41730118,
    "longitude": -77.9253006,
    "altitude": 126,
    "utcOffset": -5,
    "dst": "A"
  },
  "CYIO": {
    "iata": "YIO",
    "name": "Pond Inlet Airport",
    "city": "Pond Inlet",
    "country": "Canada",
    "latitude": 72.6832962,
    "longitude": -77.96669769,
    "altitude": 181,
    "utcOffset": -5,
    "dst": "A"
  },
  "CYIV": {
    "iata": "YIV",
    "name": "Island Lake Airport",
    "city": "Island Lake",
    "country": "Canada",
    "latitude": 53.85720062,
    "longitude": -94.6536026,
    "altitude": 770,
    "utcOffset": -6,
    "dst": "A"
  },
  "CYJF": {
    "iata": "YJF",
    "name": "Fort Liard Airport",
    "city": "Fort Liard",
    "country": "Canada",
    "latitude": 60.2358017,
    "longitude": -123.4690018,
    "altitude": 708,
    "utcOffset": "N",
    "dst": "N"
  },
  "CYJM": {
    "iata": "YJM",
    "name": "Fort St James Airport",
    "city": "Fort St. James",
    "country": "Canada",
    "latitude": 54.39720154,
    "longitude": -124.2630005,
    "altitude": 2364,
    "utcOffset": -8,
    "dst": "A"
  },
  "CYJN": {
    "iata": "YJN",
    "name": "St Jean Airport",
    "city": "St. Jean",
    "country": "Canada",
    "latitude": 45.29439926,
    "longitude": -73.28109741,
    "altitude": 136,
    "utcOffset": -5,
    "dst": "A"
  },
  "CYJQ": {
    "iata": "ZEL",
    "name": "Denny Island Airport",
    "city": "Bella Bella",
    "country": "Canada",
    "latitude": 52.139702,
    "longitude": -128.063997,
    "altitude": 162,
    "utcOffset": -8,
    "dst": "A"
  },
  "CYJT": {
    "iata": "YJT",
    "name": "Stephenville Airport",
    "city": "Stephenville",
    "country": "Canada",
    "latitude": 48.5442009,
    "longitude": -58.54999924,
    "altitude": 84,
    "utcOffset": -3.5,
    "dst": "A"
  },
  "CYKA": {
    "iata": "YKA",
    "name": "Kamloops Airport",
    "city": "Kamloops",
    "country": "Canada",
    "latitude": 50.70220184,
    "longitude": -120.4440002,
    "altitude": 1133,
    "utcOffset": -8,
    "dst": "A"
  },
  "CYKD": {
    "iata": "LAK",
    "name": "Aklavik/Freddie Carmichael Airport",
    "city": "Aklavik",
    "country": "Canada",
    "latitude": 68.223297,
    "longitude": -135.00599,
    "altitude": 23,
    "utcOffset": -7,
    "dst": "A"
  },
  "CYKF": {
    "iata": "YKF",
    "name": "Waterloo Airport",
    "city": "Waterloo",
    "country": "Canada",
    "latitude": 43.46080017,
    "longitude": -80.37860107,
    "altitude": 1055,
    "utcOffset": -5,
    "dst": "A"
  },
  "CYKG": {
    "iata": "YWB",
    "name": "Kangiqsujuaq (Wakeham Bay) Airport",
    "city": "Kangiqsujuaq",
    "country": "Canada",
    "latitude": 61.58860016,
    "longitude": -71.92939758,
    "altitude": 501,
    "utcOffset": -5,
    "dst": "A"
  },
  "CYKJ": {
    "iata": "YKJ",
    "name": "Key Lake Airport",
    "city": "Key Lake",
    "country": "Canada",
    "latitude": 57.2560997,
    "longitude": -105.6179962,
    "altitude": 1679,
    "utcOffset": "N",
    "dst": "N"
  },
  "CYKL": {
    "iata": "YKL",
    "name": "Schefferville Airport",
    "city": "Schefferville",
    "country": "Canada",
    "latitude": 54.80530167,
    "longitude": -66.80529785,
    "altitude": 1709,
    "utcOffset": -5,
    "dst": "A"
  },
  "CYKO": {
    "iata": "AKV",
    "name": "Akulivik Airport",
    "city": "Akulivik",
    "country": "Canada",
    "latitude": 60.8185997,
    "longitude": -78.14859772,
    "altitude": 75,
    "utcOffset": -5,
    "dst": "A"
  },
  "CYKQ": {
    "iata": "YKQ",
    "name": "Waskaganish Airport",
    "city": "Waskaganish",
    "country": "Canada",
    "latitude": 51.47330093,
    "longitude": -78.75830078,
    "altitude": 80,
    "utcOffset": -5,
    "dst": "A"
  },
  "CYKX": {
    "iata": "YKX",
    "name": "Kirkland Lake Airport",
    "city": "Kirkland Lake",
    "country": "Canada",
    "latitude": 48.21030045,
    "longitude": -79.98139954,
    "altitude": 1157,
    "utcOffset": -5,
    "dst": "A"
  },
  "CYKY": {
    "iata": "YKY",
    "name": "Kindersley Airport",
    "city": "Kindersley",
    "country": "Canada",
    "latitude": 51.51750183,
    "longitude": -109.1809998,
    "altitude": 2277,
    "utcOffset": -6,
    "dst": "N"
  },
  "CYKZ": {
    "iata": "YKZ",
    "name": "Buttonville Municipal Airport",
    "city": "Toronto",
    "country": "Canada",
    "latitude": 43.86220169,
    "longitude": -79.37000275,
    "altitude": 650,
    "utcOffset": -5,
    "dst": "A"
  },
  "CYLA": {
    "iata": "YPJ",
    "name": "Aupaluk Airport",
    "city": "Aupaluk",
    "country": "Canada",
    "latitude": 59.29669952,
    "longitude": -69.59970093,
    "altitude": 119,
    "utcOffset": -5,
    "dst": "A"
  },
  "CYLC": {
    "iata": "YLC",
    "name": "Kimmirut Airport",
    "city": "Kimmirut",
    "country": "Canada",
    "latitude": 62.84999847,
    "longitude": -69.88330078,
    "altitude": 175,
    "utcOffset": -5,
    "dst": "A"
  },
  "CYLD": {
    "iata": "YLD",
    "name": "Chapleau Airport",
    "city": "Chapleau",
    "country": "Canada",
    "latitude": 47.81999969,
    "longitude": -83.34670258,
    "altitude": 1470,
    "utcOffset": -5,
    "dst": "A"
  },
  "CYLH": {
    "iata": "YLH",
    "name": "Lansdowne House Airport",
    "city": "Lansdowne House",
    "country": "Canada",
    "latitude": 52.1955986,
    "longitude": -87.93419647,
    "altitude": 834,
    "utcOffset": -5,
    "dst": "A"
  },
  "CYLJ": {
    "iata": "YLJ",
    "name": "Meadow Lake Airport",
    "city": "Meadow Lake",
    "country": "Canada",
    "latitude": 54.12530136,
    "longitude": -108.5230026,
    "altitude": 1576,
    "utcOffset": -6,
    "dst": "N"
  },
  "CYLL": {
    "iata": "YLL",
    "name": "Lloydminster Airport",
    "city": "Lloydminster",
    "country": "Canada",
    "latitude": 53.30920029,
    "longitude": -110.072998,
    "altitude": 2193,
    "utcOffset": -7,
    "dst": "A"
  },
  "CYLR": {
    "iata": "YLR",
    "name": "Leaf Rapids Airport",
    "city": "Leaf Rapids",
    "country": "Canada",
    "latitude": 56.51330185,
    "longitude": -99.98529816,
    "altitude": 959,
    "utcOffset": "N",
    "dst": "N"
  },
  "CYLS": {
    "iata": "YLK",
    "name": "Barrie-Orillia (Lake Simcoe Regional Airport)",
    "city": "Barrie-Orillia",
    "country": "Canada",
    "latitude": 44.48529816,
    "longitude": -79.55560303,
    "altitude": 972,
    "utcOffset": -5,
    "dst": "A"
  },
  "CYLT": {
    "iata": "YLT",
    "name": "Alert Airport",
    "city": "Alert",
    "country": "Canada",
    "latitude": 82.51779938,
    "longitude": -62.2806015,
    "altitude": 100,
    "utcOffset": -5,
    "dst": "A"
  },
  "CYLU": {
    "iata": "XGR",
    "name": "Kangiqsualujjuaq (Georges River) Airport",
    "city": "Kangiqsualujjuaq",
    "country": "Canada",
    "latitude": 58.71139908,
    "longitude": -65.99279785,
    "altitude": 215,
    "utcOffset": -5,
    "dst": "A"
  },
  "CYLW": {
    "iata": "YLW",
    "name": "Kelowna International Airport",
    "city": "Kelowna",
    "country": "Canada",
    "latitude": 49.95610046,
    "longitude": -119.3779984,
    "altitude": 1421,
    "utcOffset": -8,
    "dst": "A"
  },
  "CYMA": {
    "iata": "YMA",
    "name": "Mayo Airport",
    "city": "Mayo",
    "country": "Canada",
    "latitude": 63.61640167,
    "longitude": -135.8679962,
    "altitude": 1653,
    "utcOffset": -8,
    "dst": "A"
  },
  "CYME": {
    "iata": "YME",
    "name": "Matane Airport",
    "city": "Matane",
    "country": "Canada",
    "latitude": 48.85689926,
    "longitude": -67.45330048,
    "altitude": 102,
    "utcOffset": "N",
    "dst": "N"
  },
  "CYMG": {
    "iata": "YMG",
    "name": "Manitouwadge Airport",
    "city": "Manitouwadge",
    "country": "Canada",
    "latitude": 49.08390045,
    "longitude": -85.86060333,
    "altitude": 1198,
    "utcOffset": -5,
    "dst": "A"
  },
  "CYMH": {
    "iata": "YMH",
    "name": "Mary's Harbour Airport",
    "city": "Mary's Harbour",
    "country": "Canada",
    "latitude": 52.30279922,
    "longitude": -55.84719849,
    "altitude": 38,
    "utcOffset": -3.5,
    "dst": "A"
  },
  "CYMJ": {
    "iata": "YMJ",
    "name": "Moose Jaw Air Vice Marshal C. M. McEwen Airport",
    "city": "Moose Jaw",
    "country": "Canada",
    "latitude": 50.33029938,
    "longitude": -105.5589981,
    "altitude": 1892,
    "utcOffset": -6,
    "dst": "N"
  },
  "CYML": {
    "iata": "YML",
    "name": "Charlevoix Airport",
    "city": "Charlevoix",
    "country": "Canada",
    "latitude": 47.59749985,
    "longitude": -70.22389984,
    "altitude": 977,
    "utcOffset": "N",
    "dst": "N"
  },
  "CYMM": {
    "iata": "YMM",
    "name": "Fort McMurray Airport",
    "city": "Fort Mcmurray",
    "country": "Canada",
    "latitude": 56.65330124,
    "longitude": -111.2220001,
    "altitude": 1211,
    "utcOffset": -7,
    "dst": "A"
  },
  "CYMO": {
    "iata": "YMO",
    "name": "Moosonee Airport",
    "city": "Moosonee",
    "country": "Canada",
    "latitude": 51.29109955,
    "longitude": -80.60780334,
    "altitude": 30,
    "utcOffset": -5,
    "dst": "A"
  },
  "CYMT": {
    "iata": "YMT",
    "name": "Chapais Airport",
    "city": "Chibougamau",
    "country": "Canada",
    "latitude": 49.77190018,
    "longitude": -74.52809906,
    "altitude": 1270,
    "utcOffset": -5,
    "dst": "A"
  },
  "CYMU": {
    "iata": "YUD",
    "name": "Umiujaq Airport",
    "city": "Umiujaq",
    "country": "Canada",
    "latitude": 56.53609848,
    "longitude": -76.51830292,
    "altitude": 250,
    "utcOffset": -5,
    "dst": "A"
  },
  "CYMW": {
    "iata": "YMW",
    "name": "Maniwaki Airport",
    "city": "Maniwaki",
    "country": "Canada",
    "latitude": 46.27280045,
    "longitude": -75.99060059,
    "altitude": 656,
    "utcOffset": -5,
    "dst": "A"
  },
  "CYMX": {
    "iata": "YMX",
    "name": "Montreal International (Mirabel) Airport",
    "city": "Montreal",
    "country": "Canada",
    "latitude": 45.67950058,
    "longitude": -74.03869629,
    "altitude": 270,
    "utcOffset": -5,
    "dst": "A"
  },
  "CYNA": {
    "iata": "YNA",
    "name": "Natashquan Airport",
    "city": "Natashquan",
    "country": "Canada",
    "latitude": 50.18999863,
    "longitude": -61.78919983,
    "altitude": 39,
    "utcOffset": -5,
    "dst": "A"
  },
  "CYNC": {
    "iata": "YNC",
    "name": "Wemindji Airport",
    "city": "Wemindji",
    "country": "Canada",
    "latitude": 53.01060104,
    "longitude": -78.83110046,
    "altitude": 66,
    "utcOffset": -5,
    "dst": "A"
  },
  "CYND": {
    "iata": "YND",
    "name": "Ottawa / Gatineau Airport",
    "city": "Gatineau",
    "country": "Canada",
    "latitude": 45.52170181,
    "longitude": -75.56359863,
    "altitude": 211,
    "utcOffset": -5,
    "dst": "A"
  },
  "CYNE": {
    "iata": "YNE",
    "name": "Norway House Airport",
    "city": "Norway House",
    "country": "Canada",
    "latitude": 53.95830154,
    "longitude": -97.84420013,
    "altitude": 734,
    "utcOffset": -6,
    "dst": "A"
  },
  "CYNJ": {
    "iata": "",
    "name": "Langley Airport",
    "city": "Langley Township",
    "country": "Canada",
    "latitude": 49.10079956,
    "longitude": -122.6309967,
    "altitude": 34,
    "utcOffset": -8,
    "dst": "A"
  },
  "CYNL": {
    "iata": "YNL",
    "name": "Points North Landing Airport",
    "city": "Points North Landing",
    "country": "Canada",
    "latitude": 58.27669907,
    "longitude": -104.0820007,
    "altitude": 1605,
    "utcOffset": -6,
    "dst": "N"
  },
  "CYNM": {
    "iata": "YNM",
    "name": "Matagami Airport",
    "city": "Matagami",
    "country": "Canada",
    "latitude": 49.76169968,
    "longitude": -77.80280304,
    "altitude": 918,
    "utcOffset": -5,
    "dst": "A"
  },
  "CYNN": {
    "iata": "",
    "name": "Nejanilini Lake Airport",
    "city": "Nejanilini Lake",
    "country": "Canada",
    "latitude": 59.48749924,
    "longitude": -97.78029633,
    "altitude": 1000,
    "utcOffset": "N",
    "dst": "N"
  },
  "CYNR": {
    "iata": "HZP",
    "name": "Fort Mackay / Horizon Airport",
    "city": "Wood Buffalo",
    "country": "Canada",
    "latitude": 57.38169861,
    "longitude": -111.7009964,
    "altitude": 916,
    "utcOffset": -7,
    "dst": "A"
  },
  "CYOA": {
    "iata": "YOA",
    "name": "Ekati Airport",
    "city": "Ekati",
    "country": "Canada",
    "latitude": 64.69889832,
    "longitude": -110.6149979,
    "altitude": 1536,
    "utcOffset": -7,
    "dst": "A"
  },
  "CYOC": {
    "iata": "YOC",
    "name": "Old Crow Airport",
    "city": "Old Crow",
    "country": "Canada",
    "latitude": 67.57060242,
    "longitude": -139.8390045,
    "altitude": 824,
    "utcOffset": -8,
    "dst": "A"
  },
  "CYOD": {
    "iata": "YOD",
    "name": "CFB Cold Lake",
    "city": "Cold Lake",
    "country": "Canada",
    "latitude": 54.40499878,
    "longitude": -110.2789993,
    "altitude": 1775,
    "utcOffset": -7,
    "dst": "A"
  },
  "CYOH": {
    "iata": "YOH",
    "name": "Oxford House Airport",
    "city": "Oxford House",
    "country": "Canada",
    "latitude": 54.93330002,
    "longitude": -95.27890015,
    "altitude": 663,
    "utcOffset": -6,
    "dst": "A"
  },
  "CYOJ": {
    "iata": "YOJ",
    "name": "High Level Airport",
    "city": "High Level",
    "country": "Canada",
    "latitude": 58.62139893,
    "longitude": -117.1650009,
    "altitude": 1110,
    "utcOffset": -7,
    "dst": "A"
  },
  "CYOO": {
    "iata": "YOO",
    "name": "Oshawa Airport",
    "city": "Oshawa",
    "country": "Canada",
    "latitude": 43.92279816,
    "longitude": -78.89499664,
    "altitude": 460,
    "utcOffset": -5,
    "dst": "A"
  },
  "CYOP": {
    "iata": "YOP",
    "name": "Rainbow Lake Airport",
    "city": "Rainbow Lake",
    "country": "Canada",
    "latitude": 58.49140167,
    "longitude": -119.4079971,
    "altitude": 1759,
    "utcOffset": -7,
    "dst": "A"
  },
  "CYOS": {
    "iata": "YOS",
    "name": "Owen Sound / Billy Bishop Regional Airport",
    "city": "Owen Sound",
    "country": "Canada",
    "latitude": 44.59030151,
    "longitude": -80.83750153,
    "altitude": 1007,
    "utcOffset": "N",
    "dst": "N"
  },
  "CYOW": {
    "iata": "YOW",
    "name": "Ottawa Macdonald-Cartier International Airport",
    "city": "Ottawa",
    "country": "Canada",
    "latitude": 45.32249832,
    "longitude": -75.66919708,
    "altitude": 374,
    "utcOffset": -5,
    "dst": "A"
  },
  "CYPA": {
    "iata": "YPA",
    "name": "Prince Albert Glass Field",
    "city": "Prince Albert",
    "country": "Canada",
    "latitude": 53.21419907,
    "longitude": -105.6729965,
    "altitude": 1405,
    "utcOffset": -6,
    "dst": "N"
  },
  "CYPC": {
    "iata": "YPC",
    "name": "Paulatuk (Nora Aliqatchialuk Ruben) Airport",
    "city": "Paulatuk",
    "country": "Canada",
    "latitude": 69.36083812,
    "longitude": -124.07547,
    "altitude": 15,
    "utcOffset": -7,
    "dst": "A"
  },
  "CYPD": {
    "iata": "YPS",
    "name": "Port Hawkesbury Airport",
    "city": "Port Hawkesbury",
    "country": "Canada",
    "latitude": 45.65670013,
    "longitude": -61.36809921,
    "altitude": 377,
    "utcOffset": "N",
    "dst": "N"
  },
  "CYPE": {
    "iata": "YPE",
    "name": "Peace River Airport",
    "city": "Peace River",
    "country": "Canada",
    "latitude": 56.22689819,
    "longitude": -117.4469986,
    "altitude": 1873,
    "utcOffset": -7,
    "dst": "A"
  },
  "CYPG": {
    "iata": "YPG",
    "name": "Southport Airport",
    "city": "Portage-la-prairie",
    "country": "Canada",
    "latitude": 49.903099,
    "longitude": -98.273817,
    "altitude": 885,
    "utcOffset": -6,
    "dst": "A"
  },
  "CYPH": {
    "iata": "YPH",
    "name": "Inukjuak Airport",
    "city": "Inukjuak",
    "country": "Canada",
    "latitude": 58.47190094,
    "longitude": -78.07689667,
    "altitude": 83,
    "utcOffset": -5,
    "dst": "A"
  },
  "CYPK": {
    "iata": "",
    "name": "Pitt Meadows Airport",
    "city": "Pitt Meadows",
    "country": "Canada",
    "latitude": 49.21609879,
    "longitude": -122.7099991,
    "altitude": 11,
    "utcOffset": -8,
    "dst": "A"
  },
  "CYPL": {
    "iata": "YPL",
    "name": "Pickle Lake Airport",
    "city": "Pickle Lake",
    "country": "Canada",
    "latitude": 51.44639969,
    "longitude": -90.21420288,
    "altitude": 1267,
    "utcOffset": -5,
    "dst": "A"
  },
  "CYPM": {
    "iata": "YPM",
    "name": "Pikangikum Airport",
    "city": "Pikangikum",
    "country": "Canada",
    "latitude": 51.81969833,
    "longitude": -93.97329712,
    "altitude": 1114,
    "utcOffset": -6,
    "dst": "A"
  },
  "CYPN": {
    "iata": "YPN",
    "name": "Port Menier Airport",
    "city": "Port Menier",
    "country": "Canada",
    "latitude": 49.83639908,
    "longitude": -64.28859711,
    "altitude": 167,
    "utcOffset": -5,
    "dst": "A"
  },
  "CYPO": {
    "iata": "YPO",
    "name": "Peawanuck Airport",
    "city": "Peawanuck",
    "country": "Canada",
    "latitude": 54.98809814,
    "longitude": -85.44329834,
    "altitude": 173,
    "utcOffset": -5,
    "dst": "A"
  },
  "CYPQ": {
    "iata": "YPQ",
    "name": "Peterborough Airport",
    "city": "Peterborough",
    "country": "Canada",
    "latitude": 44.22999954,
    "longitude": -78.36329651,
    "altitude": 628,
    "utcOffset": -5,
    "dst": "A"
  },
  "CYPR": {
    "iata": "YPR",
    "name": "Prince Rupert Airport",
    "city": "Prince Pupert",
    "country": "Canada",
    "latitude": 54.28609848,
    "longitude": -130.4450073,
    "altitude": 116,
    "utcOffset": -8,
    "dst": "A"
  },
  "CYPW": {
    "iata": "YPW",
    "name": "Powell River Airport",
    "city": "Powell River",
    "country": "Canada",
    "latitude": 49.83420181,
    "longitude": -124.5,
    "altitude": 425,
    "utcOffset": -8,
    "dst": "A"
  },
  "CYPX": {
    "iata": "YPX",
    "name": "Puvirnituq Airport",
    "city": "Puvirnituq",
    "country": "Canada",
    "latitude": 60.05059814,
    "longitude": -77.28690338,
    "altitude": 74,
    "utcOffset": -5,
    "dst": "A"
  },
  "CYPY": {
    "iata": "YPY",
    "name": "Fort Chipewyan Airport",
    "city": "Fort Chipewyan",
    "country": "Canada",
    "latitude": 58.76720047,
    "longitude": -111.1169968,
    "altitude": 761,
    "utcOffset": -7,
    "dst": "A"
  },
  "CYQA": {
    "iata": "YQA",
    "name": "Muskoka Airport",
    "city": "Muskoka",
    "country": "Canada",
    "latitude": 44.97470093,
    "longitude": -79.30329895,
    "altitude": 925,
    "utcOffset": -5,
    "dst": "A"
  },
  "CYQB": {
    "iata": "YQB",
    "name": "Quebec Jean Lesage International Airport",
    "city": "Quebec",
    "country": "Canada",
    "latitude": 46.7911,
    "longitude": -71.393303,
    "altitude": 244,
    "utcOffset": -5,
    "dst": "A"
  },
  "CYQD": {
    "iata": "YQD",
    "name": "The Pas Airport",
    "city": "The Pas",
    "country": "Canada",
    "latitude": 53.97140121,
    "longitude": -101.0910034,
    "altitude": 887,
    "utcOffset": -6,
    "dst": "A"
  },
  "CYQF": {
    "iata": "YQF",
    "name": "Red Deer Regional Airport",
    "city": "Red Deer Industrial",
    "country": "Canada",
    "latitude": 52.18220139,
    "longitude": -113.8939972,
    "altitude": 2968,
    "utcOffset": -7,
    "dst": "A"
  },
  "CYQG": {
    "iata": "YQG",
    "name": "Windsor Airport",
    "city": "Windsor",
    "country": "Canada",
    "latitude": 42.27560043,
    "longitude": -82.95559692,
    "altitude": 622,
    "utcOffset": -5,
    "dst": "A"
  },
  "CYQH": {
    "iata": "YQH",
    "name": "Watson Lake Airport",
    "city": "Watson Lake",
    "country": "Canada",
    "latitude": 60.11640167,
    "longitude": -128.8220062,
    "altitude": 2255,
    "utcOffset": -8,
    "dst": "A"
  },
  "CYQI": {
    "iata": "YQI",
    "name": "Yarmouth Airport",
    "city": "Yarmouth",
    "country": "Canada",
    "latitude": 43.82690048,
    "longitude": -66.08809662,
    "altitude": 141,
    "utcOffset": -4,
    "dst": "A"
  },
  "CYQK": {
    "iata": "YQK",
    "name": "Kenora Airport",
    "city": "Kenora",
    "country": "Canada",
    "latitude": 49.78829956,
    "longitude": -94.36309814,
    "altitude": 1332,
    "utcOffset": -6,
    "dst": "A"
  },
  "CYQL": {
    "iata": "YQL",
    "name": "Lethbridge County Airport",
    "city": "Lethbridge",
    "country": "Canada",
    "latitude": 49.63029861,
    "longitude": -112.8000031,
    "altitude": 3048,
    "utcOffset": -7,
    "dst": "A"
  },
  "CYQM": {
    "iata": "YQM",
    "name": "Greater Moncton International Airport",
    "city": "Moncton",
    "country": "Canada",
    "latitude": 46.11220169,
    "longitude": -64.6785965,
    "altitude": 232,
    "utcOffset": -4,
    "dst": "A"
  },
  "CYQN": {
    "iata": "YQN",
    "name": "Nakina Airport",
    "city": "Nakina",
    "country": "Canada",
    "latitude": 50.18280029,
    "longitude": -86.6964035,
    "altitude": 1057,
    "utcOffset": -5,
    "dst": "A"
  },
  "CYQQ": {
    "iata": "YQQ",
    "name": "Comox Airport",
    "city": "Comox",
    "country": "Canada",
    "latitude": 49.71080017,
    "longitude": -124.887001,
    "altitude": 84,
    "utcOffset": -8,
    "dst": "A"
  },
  "CYQR": {
    "iata": "YQR",
    "name": "Regina International Airport",
    "city": "Regina",
    "country": "Canada",
    "latitude": 50.43190002,
    "longitude": -104.6660004,
    "altitude": 1894,
    "utcOffset": -6,
    "dst": "N"
  },
  "CYQS": {
    "iata": "YQS",
    "name": "St Thomas Municipal Airport",
    "city": "St Thomas",
    "country": "Canada",
    "latitude": 42.77000046,
    "longitude": -81.1108017,
    "altitude": 778,
    "utcOffset": "N",
    "dst": "N"
  },
  "CYQT": {
    "iata": "YQT",
    "name": "Thunder Bay Airport",
    "city": "Thunder Bay",
    "country": "Canada",
    "latitude": 48.37189865,
    "longitude": -89.32389832,
    "altitude": 653,
    "utcOffset": -5,
    "dst": "A"
  },
  "CYQU": {
    "iata": "YQU",
    "name": "Grande Prairie Airport",
    "city": "Grande Prairie",
    "country": "Canada",
    "latitude": 55.17969894,
    "longitude": -118.8850021,
    "altitude": 2195,
    "utcOffset": -7,
    "dst": "A"
  },
  "CYQV": {
    "iata": "YQV",
    "name": "Yorkton Municipal Airport",
    "city": "Yorkton",
    "country": "Canada",
    "latitude": 51.26470184,
    "longitude": -102.461998,
    "altitude": 1635,
    "utcOffset": -6,
    "dst": "N"
  },
  "CYQW": {
    "iata": "YQW",
    "name": "North Battleford Airport",
    "city": "North Battleford",
    "country": "Canada",
    "latitude": 52.76919937,
    "longitude": -108.2440033,
    "altitude": 1799,
    "utcOffset": -6,
    "dst": "N"
  },
  "CYQX": {
    "iata": "YQX",
    "name": "Gander International Airport",
    "city": "Gander",
    "country": "Canada",
    "latitude": 48.93690109,
    "longitude": -54.56809998,
    "altitude": 496,
    "utcOffset": -3.5,
    "dst": "A"
  },
  "CYQY": {
    "iata": "YQY",
    "name": "Sydney / J.A. Douglas McCurdy Airport",
    "city": "Sydney",
    "country": "Canada",
    "latitude": 46.16139984,
    "longitude": -60.04779816,
    "altitude": 203,
    "utcOffset": -4,
    "dst": "A"
  },
  "CYQZ": {
    "iata": "YQZ",
    "name": "Quesnel Airport",
    "city": "Quesnel",
    "country": "Canada",
    "latitude": 53.02610016,
    "longitude": -122.5100021,
    "altitude": 1789,
    "utcOffset": -8,
    "dst": "A"
  },
  "CYRA": {
    "iata": "YRA",
    "name": "Rae Lakes Airport",
    "city": "Gamètì",
    "country": "Canada",
    "latitude": 64.1160965,
    "longitude": -117.3099976,
    "altitude": 723,
    "utcOffset": -7,
    "dst": "A"
  },
  "CYRB": {
    "iata": "YRB",
    "name": "Resolute Bay Airport",
    "city": "Resolute",
    "country": "Canada",
    "latitude": 74.71690369,
    "longitude": -94.9693985,
    "altitude": 215,
    "utcOffset": -6,
    "dst": "A"
  },
  "CYRI": {
    "iata": "YRI",
    "name": "Rivière-du-Loup Airport",
    "city": "Riviere Du Loup",
    "country": "Canada",
    "latitude": 47.76440048,
    "longitude": -69.58470154,
    "altitude": 427,
    "utcOffset": -5,
    "dst": "A"
  },
  "CYRJ": {
    "iata": "YRJ",
    "name": "Roberval Airport",
    "city": "Roberval",
    "country": "Canada",
    "latitude": 48.52000046,
    "longitude": -72.26560211,
    "altitude": 586,
    "utcOffset": -5,
    "dst": "A"
  },
  "CYRL": {
    "iata": "YRL",
    "name": "Red Lake Airport",
    "city": "Red Lake",
    "country": "Canada",
    "latitude": 51.06689835,
    "longitude": -93.79309845,
    "altitude": 1265,
    "utcOffset": -6,
    "dst": "A"
  },
  "CYRM": {
    "iata": "YRM",
    "name": "Rocky Mountain House Airport",
    "city": "Rocky Mountain House",
    "country": "Canada",
    "latitude": 52.42969894,
    "longitude": -114.9039993,
    "altitude": 3244,
    "utcOffset": -7,
    "dst": "A"
  },
  "CYRO": {
    "iata": "YRO",
    "name": "Ottawa / Rockcliffe Airport",
    "city": "Ottawa",
    "country": "Canada",
    "latitude": 45.46030045,
    "longitude": -75.64610291,
    "altitude": 188,
    "utcOffset": "N",
    "dst": "N"
  },
  "CYRP": {
    "iata": "YRP",
    "name": "Ottawa / Carp Airport",
    "city": "Ottawa",
    "country": "Canada",
    "latitude": 45.31919861,
    "longitude": -76.02220154,
    "altitude": 382,
    "utcOffset": "N",
    "dst": "N"
  },
  "CYRQ": {
    "iata": "YRQ",
    "name": "Trois-Rivières Airport",
    "city": "Trois Rivieres",
    "country": "Canada",
    "latitude": 46.35279846,
    "longitude": -72.67939758,
    "altitude": 199,
    "utcOffset": -5,
    "dst": "A"
  },
  "CYRS": {
    "iata": "YRS",
    "name": "Red Sucker Lake Airport",
    "city": "Red Sucker Lake",
    "country": "Canada",
    "latitude": 54.16719818,
    "longitude": -93.55719757,
    "altitude": 729,
    "utcOffset": -6,
    "dst": "A"
  },
  "CYRT": {
    "iata": "YRT",
    "name": "Rankin Inlet Airport",
    "city": "Rankin Inlet",
    "country": "Canada",
    "latitude": 62.81140137,
    "longitude": -92.11579895,
    "altitude": 94,
    "utcOffset": -6,
    "dst": "A"
  },
  "CYRV": {
    "iata": "YRV",
    "name": "Revelstoke Airport",
    "city": "Revelstoke",
    "country": "Canada",
    "latitude": 50.96670151,
    "longitude": -118.1829987,
    "altitude": 1459,
    "utcOffset": -8,
    "dst": "A"
  },
  "CYSB": {
    "iata": "YSB",
    "name": "Sudbury Airport",
    "city": "Sudbury",
    "country": "Canada",
    "latitude": 46.625,
    "longitude": -80.79889679,
    "altitude": 1141,
    "utcOffset": -5,
    "dst": "A"
  },
  "CYSC": {
    "iata": "YSC",
    "name": "Sherbrooke Airport",
    "city": "Sherbrooke",
    "country": "Canada",
    "latitude": 45.43859863,
    "longitude": -71.69139862,
    "altitude": 792,
    "utcOffset": -5,
    "dst": "A"
  },
  "CYSD": {
    "iata": "YSD",
    "name": "Suffield Heliport",
    "city": "Suffield",
    "country": "Canada",
    "latitude": 50.26670074,
    "longitude": -111.1829987,
    "altitude": 2525,
    "utcOffset": -7,
    "dst": "A"
  },
  "CYSE": {
    "iata": "YSE",
    "name": "Squamish Airport",
    "city": "Squamish",
    "country": "Canada",
    "latitude": 49.78170013,
    "longitude": -123.1620026,
    "altitude": 171,
    "utcOffset": -8,
    "dst": "A"
  },
  "CYSF": {
    "iata": "YSF",
    "name": "Stony Rapids Airport",
    "city": "Stony Rapids",
    "country": "Canada",
    "latitude": 59.25030136,
    "longitude": -105.8410034,
    "altitude": 805,
    "utcOffset": -6,
    "dst": "N"
  },
  "CYSG": {
    "iata": "YSG",
    "name": "St Georges Airport",
    "city": "Lutselk'e",
    "country": "Canada",
    "latitude": 46.09640121,
    "longitude": -70.71469879,
    "altitude": 893,
    "utcOffset": -5,
    "dst": "A"
  },
  "CYSH": {
    "iata": "YSH",
    "name": "Smiths Falls-Montague (Russ Beach) Airport",
    "city": "Smiths Falls",
    "country": "Canada",
    "latitude": 44.94580078,
    "longitude": -75.94059753,
    "altitude": 416,
    "utcOffset": "N",
    "dst": "N"
  },
  "CYSJ": {
    "iata": "YSJ",
    "name": "Saint John Airport",
    "city": "St. John",
    "country": "Canada",
    "latitude": 45.31610107,
    "longitude": -65.89029694,
    "altitude": 357,
    "utcOffset": -4,
    "dst": "A"
  },
  "CYSK": {
    "iata": "YSK",
    "name": "Sanikiluaq Airport",
    "city": "Sanikiluaq",
    "country": "Canada",
    "latitude": 56.53779984,
    "longitude": -79.24669647,
    "altitude": 104,
    "utcOffset": -5,
    "dst": "A"
  },
  "CYSL": {
    "iata": "YSL",
    "name": "St Leonard Airport",
    "city": "St Leonard",
    "country": "Canada",
    "latitude": 47.15750122,
    "longitude": -67.83470154,
    "altitude": 793,
    "utcOffset": "N",
    "dst": "N"
  },
  "CYSM": {
    "iata": "YSM",
    "name": "Fort Smith Airport",
    "city": "Fort Smith",
    "country": "Canada",
    "latitude": 60.02030182,
    "longitude": -111.961998,
    "altitude": 671,
    "utcOffset": -7,
    "dst": "A"
  },
  "CYSN": {
    "iata": "YCM",
    "name": "Niagara District Airport",
    "city": "Saint Catherines",
    "country": "Canada",
    "latitude": 43.19169998,
    "longitude": -79.17169952,
    "altitude": 321,
    "utcOffset": -5,
    "dst": "A"
  },
  "CYSP": {
    "iata": "YSP",
    "name": "Marathon Airport",
    "city": "Marathon",
    "country": "Canada",
    "latitude": 48.75529861,
    "longitude": -86.3443985,
    "altitude": 1035,
    "utcOffset": -5,
    "dst": "A"
  },
  "CYSR": {
    "iata": "YSR",
    "name": "Nanisivik Airport",
    "city": "Nanisivik",
    "country": "Canada",
    "latitude": 72.982201,
    "longitude": -84.613602,
    "altitude": 2106,
    "utcOffset": -5,
    "dst": "A"
  },
  "CYST": {
    "iata": "YST",
    "name": "St. Theresa Point Airport",
    "city": "St. Theresa Point",
    "country": "Canada",
    "latitude": 53.84560013,
    "longitude": -94.85189819,
    "altitude": 773,
    "utcOffset": -6,
    "dst": "A"
  },
  "CYSU": {
    "iata": "YSU",
    "name": "Summerside Airport",
    "city": "Summerside",
    "country": "Canada",
    "latitude": 46.44060135,
    "longitude": -63.83359909,
    "altitude": 56,
    "utcOffset": -4,
    "dst": "A"
  },
  "CYSY": {
    "iata": "YSY",
    "name": "Sachs Harbour (David Nasogaluak Jr. Saaryuaq) Airport",
    "city": "Sachs Harbour",
    "country": "Canada",
    "latitude": 71.99389648,
    "longitude": -125.2429962,
    "altitude": 282,
    "utcOffset": -7,
    "dst": "A"
  },
  "CYTA": {
    "iata": "YTA",
    "name": "Pembroke Airport",
    "city": "Pembroke",
    "country": "Canada",
    "latitude": 45.86439896,
    "longitude": -77.25170135,
    "altitude": 529,
    "utcOffset": -5,
    "dst": "A"
  },
  "CYTE": {
    "iata": "YTE",
    "name": "Cape Dorset Airport",
    "city": "Cape Dorset",
    "country": "Canada",
    "latitude": 64.23000336,
    "longitude": -76.52670288,
    "altitude": 164,
    "utcOffset": -5,
    "dst": "A"
  },
  "CYTF": {
    "iata": "YTF",
    "name": "Alma Airport",
    "city": "Alma",
    "country": "Canada",
    "latitude": 48.50889969,
    "longitude": -71.64189911,
    "altitude": 445,
    "utcOffset": -5,
    "dst": "A"
  },
  "CYTH": {
    "iata": "YTH",
    "name": "Thompson Airport",
    "city": "Thompson",
    "country": "Canada",
    "latitude": 55.80110168,
    "longitude": -97.86419678,
    "altitude": 729,
    "utcOffset": -6,
    "dst": "A"
  },
  "CYTL": {
    "iata": "YTL",
    "name": "Big Trout Lake Airport",
    "city": "Big Trout Lake",
    "country": "Canada",
    "latitude": 53.81779861,
    "longitude": -89.89689636,
    "altitude": 729,
    "utcOffset": -6,
    "dst": "A"
  },
  "CYTQ": {
    "iata": "YTQ",
    "name": "Tasiujaq Airport",
    "city": "Tasiujaq",
    "country": "Canada",
    "latitude": 58.6678009,
    "longitude": -69.95580292,
    "altitude": 122,
    "utcOffset": -5,
    "dst": "A"
  },
  "CYTR": {
    "iata": "YTR",
    "name": "CFB Trenton",
    "city": "Trenton",
    "country": "Canada",
    "latitude": 44.1189003,
    "longitude": -77.52809906,
    "altitude": 283,
    "utcOffset": -5,
    "dst": "A"
  },
  "CYTS": {
    "iata": "YTS",
    "name": "Timmins/Victor M. Power",
    "city": "Timmins",
    "country": "Canada",
    "latitude": 48.56969833,
    "longitude": -81.37670136,
    "altitude": 967,
    "utcOffset": -5,
    "dst": "A"
  },
  "CYTZ": {
    "iata": "YTZ",
    "name": "Billy Bishop Toronto City Centre Airport",
    "city": "Toronto",
    "country": "Canada",
    "latitude": 43.627499,
    "longitude": -79.396202,
    "altitude": 252,
    "utcOffset": -5,
    "dst": "A"
  },
  "CYUB": {
    "iata": "YUB",
    "name": "Tuktoyaktuk Airport",
    "city": "Tuktoyaktuk",
    "country": "Canada",
    "latitude": 69.4332962,
    "longitude": -133.026001,
    "altitude": 15,
    "utcOffset": -7,
    "dst": "A"
  },